,Name,Reviews,Rating,Price,Distance (m),Latitude,Longitude,Address,Borough,Zipcode,Category
0,Ripe Kitchen & Bar,287,4.0,$$,805.077588601848,40.898214,-73.838821,151 W Sandford Blvd,Mount Vernon,10550,restaurant
1,H.I.M Ital Health Food Market,47,4.5,$,715.4679286349112,40.897633,-73.854665,4374B White Plains Rd,Bronx,10466,restaurant
2,Ali's Roti Shop,104,4.0,$,809.6427469842212,40.894,-73.85684,4220 White Plains Rd,Bronx,10466,restaurant
3,Paula's Soul Cafe,202,3.0,$$,746.8911061617034,40.89269,-73.85568,746 E 233rd St,Bronx,10466,restaurant
4,Jerk House,62,3.5,$$,771.5258542038998,40.89464,-73.85648,4246 White Plains,Bronx,10466,restaurant
5,Rincon Latino Restaurant,36,4.0,$,711.29302343812,40.8973541259766,-73.8547973632812,4360 White Plains Rd,Bronx,10466,restaurant
6,Carifesta Restaurant,22,4.0,$,811.1655338345455,40.89485,-73.8568,4251 White Plains Rd,Bronx,10466,restaurant
7,Cooler Runnings Jamaican Restaurant,50,3.0,$,460.354297769294,40.898157,-73.85029,1802 Nereid Ave,Bronx,10466,restaurant
8,New Dragon Star Chinese Kitchen,14,4.0,$,809.4668964251745,40.89393,-73.85677,4216 White Plains Rd,Bronx,10466,restaurant
9,Island Taste Cuisine,11,4.5,$,991.8904589233416,40.9031675,-73.8509333,4643 White Plains Rd,Bronx,10470,restaurant
10,Last Stop Bar & Grill,40,3.0,$$$,956.637872443945,40.9027582202687,-73.8512055929634,4609 White Plains Rd,Bronx,10470,restaurant
11,Loong Xin Asian cuisine,20,3.5,$,958.3918539434017,40.8935462028793,-73.8584990054369,670 E 233rd St,East Bronx,10466,restaurant
12,Joe's Pizzeria,18,4.0,$,834.2947070043408,40.893508,-73.856999,703 E 233rd St,Bronx,10466,restaurant
13,Prima Pizza,4,5.0,,448.5311931630702,40.89092494757056,-73.8490624,977 E 233rd,Bronx,10466,restaurant
14,220 African Restaurant,8,4.5,,1013.9281385459424,40.8910767,-73.8582669,4120 A White Plains Rd,Bronx,10466,restaurant
15,First Family Pizzeria,9,3.5,,438.932429106449,40.89852,-73.84881,1840 Nereid Ave,Bronx,10466,restaurant
16,Peppinos Pizza,33,3.0,$,1033.019541329993,40.903672,-73.850454,4701 White Plains Rd,Bronx,10470,restaurant
17,Lammy's,8,3.5,$,446.5167116258379,40.8909116,-73.8489425,975 E 233rd St,Bronx,10466,restaurant
18,Kaieteur Bronx Restaurant & Bakery,20,2.5,,729.2910932812491,40.89778982351,-73.8548576879766,4379 White Plains Rd,Bronx,10466,restaurant
19,Sunlife Total Health,11,4.0,$,1098.4244886485512,40.8902,-73.85893,4060 White Plains Rd,Bronx,10466,restaurant
20,Jimbo's Hamburger Palace,24,3.0,$,1011.4349827119468,40.891804,-73.858604,4137 White Plains Rd,Bronx,10466,restaurant
21,Big Daddy's Caribbean Taste,7,3.5,$$,707.7130865004747,40.89865,-73.85391,4406 White Plains Rd,Bronx,10470,restaurant
22,Tony's Pizza,7,3.5,$,903.4018713239548,40.893291,-73.857841,4189 White Plains Rd,Bronx,10466,restaurant
23,Vibez’N’Juice,3,4.5,,739.8777790642165,40.89262,-73.85551,754 E 233rd St,The Bronx,10466,restaurant
24,El Jobo Seafood Restaurant,19,2.0,$,743.689135442288,40.8927373588085,-73.8554345816374,748 E 233rd St,Bronx,10466,restaurant
25,Sangria Cafe,244,3.5,$$,585.772797117848,40.8694235021877,-73.8272849569855,2085 Bartow Ave,Bronx,10475,restaurant
26,Bagels On Bartow,69,4.0,$,555.8795936998815,40.8692951,-73.8299709,2033 Bartow Ave,Bronx,10475,restaurant
27,Dallas BBQ,300,2.5,$$,833.8265978594743,40.867923785830165,-73.8247076,2160 Bartow Ave,Bronx,10475,restaurant
28,The Dumplin Cove ,76,3.0,$$,549.2906434217012,40.87583,-73.83616,1530 E 222nd St,Bronx,10469,restaurant
29,Caridad and Louie's Restaurant,182,3.0,$$,1157.246311729089,40.86587,-73.83774,1660 E Gun Hill Rd,Bronx,10469,restaurant
30,Red Lobster,220,2.5,$$,632.6505905719605,40.8690608415422,-73.826987,2090 Bartow Ave,Bronx,10475,restaurant
31,Panera Bread,169,2.5,$$,736.1242148813802,40.8678662949,-73.8278447092,340 Baychester Avenue,Bronx,10475,restaurant
32,Shake Shack Bay Plaza,23,4.0,$$,785.3387663573768,40.86725942114285,-73.83076931846527,344 Baychester Ave,Bronx,10475,restaurant
33,Bobos Crab Shack - Coop City,27,3.5,$$,833.8771795937719,40.88087860315926,-73.82519183113857,691 Co Op City Blvd,The Bronx,10475,restaurant
34,Xin Hi,46,3.0,$$,464.024043522987,40.87033,-73.82848,2051 Bartow Ave,East Bronx,10475,restaurant
35,Dragon City,47,3.0,$,673.2606875406015,40.869,-73.82613,2102 Bartow Ave,Bronx,10475,restaurant
36,Country Thyme Cuisine,18,3.5,$$,709.0713727217541,40.876929,-73.837617,1455 E 222nd St,Bronx,10469,restaurant
37,Capri II Pizzeria,16,3.0,$,229.01149365664145,40.876352036756224,-73.82982818895488,149 Dreiser Lp,New York,10475,restaurant
38,Capri IV Deli Inc,13,3.5,$,519.8428863588717,40.86981,-73.82821,2073 Bartow Ave,Bronx,10475,restaurant
39,Outback Steakhouse,10,4.5,,813.176093848295,40.86827209830537,-73.82445212944779,2100 Bartow Ave,Bronx,10475,restaurant
40,The Original Dumpling Shop,18,3.5,,941.8036969386582,40.88011,-73.83831,3435 Baychester Ave,Bronx,10469,restaurant
41,Jr Gourmet Deli,8,4.0,$$,469.1708398704793,40.8696643,-73.8287523,2045 Bartow Ave,Bronx,10475,restaurant
42,Golden Krust Caribbean Restaurant,20,2.5,$$,751.5741502603938,40.880683,-73.827021,691 Co-op City Blvd,Bronx,10475,restaurant
43,Pizza Hut,33,2.0,$,709.1945387146889,40.8686267,-73.83380771265149,2829 Edson Ave,Bronx,10469,restaurant
44,Popeyes Louisiana Kitchen,32,2.0,$,638.61765679377,40.868622,-73.83113,360 Baychester Ave,Bronx,10475,restaurant
45,Joyful Dragon,13,3.0,,695.0096711918833,40.868797,-73.833893,2829 Edson Ave,New York,10469,restaurant
46,Guang Hui Restaurant Incorporated,11,2.0,$$,250.85861576261183,40.876441,-73.829022,125 Dreiser Lp,Bronx,10475,restaurant
47,McDonald's,33,2.0,$,623.7575373833703,40.8687059243768,-73.830585321457,2010 Bartow Ave,Bronx,10475,restaurant
48,Chipotle Mexican Grill,23,2.0,$,679.0493597755336,40.868854,-73.82627,2122 Bartow Ave,Bronx,10475,restaurant
49,Taco Bell,36,2.0,$,1030.1212633307582,40.8827165260369,-73.8248359268336,3351 Conners Street,Bronx,10475,restaurant
50,Fish N' Ting,327,4.0,$$,229.99999145018447,40.885723,-73.829075,4063 Boston Rd,Bronx,10466,restaurant
51,Gourmet Express,68,4.5,$$,940.4812245369012,40.8904762268066,-73.8173065185547,924 West St,Pelham,10803,restaurant
52,Cozy Cottage Restaurant,90,3.5,$,131.5680805718199,40.886382,-73.827697,4105 Boston Rd,Bronx,10466,restaurant
53,Dyre Fish Market,52,4.0,$$,313.2019553774072,40.88888,-73.83094,3828 Dyre Ave,Bronx,10466,restaurant
54,Mingles Express Grill,40,4.0,,555.2508675003902,40.883891190256,-73.8322932924236,4018 Boston Rd,Bronx,10475,restaurant
55,Jimmy's Best Chinese Restaurant,35,4.5,$,612.6284378173224,40.88447,-73.8315,4004A Boston Rd,Bronx,10475,restaurant
56,Yumi,208,3.5,$$,923.0468281314392,40.893762,-73.820514,802 Pelham Pkwy,Pelham Manor,10803,restaurant
57,Smashburger,162,3.5,$$,672.9836616451463,40.890174862656586,-73.82058906530364,847 Pelham Pkwy,Pelham Manor,10803,restaurant
58,Mario's Pizzeria,25,4.0,$,296.78517874577744,40.88864,-73.83104,3824 Dyre Ave,Bronx,10466,restaurant
59,IHOP,82,3.5,$$,753.5728353634149,40.88995,-73.81942,4340 Boston Post Rd,Bronx,10475,restaurant
60,City Tamale,73,4.5,$,9837.028620245368,40.8102546,-73.8846809,1316 Oak Point Ave,Bronx,10474,restaurant
61,Sloppie Joe's Food Truck,31,5.0,$,4484.679962534421,40.91594,-73.85459,,Yonkers,10704,restaurant
62,Five Guys,76,3.5,$$,963.8266703911154,40.8939600669499,-73.82007992944773,808 Pelham Pkwy,Pelham Manor,10803,restaurant
63,Panera Bread,70,3.5,$$,860.3398661125711,40.891502,-73.819003,875 Pelham Parkway,Pelham Manor,10803,restaurant
64,Dyre Ave Diner,29,3.5,$,322.05002755977904,40.887966,-73.831612,3803 Dyre Ave,Bronx,10466,restaurant
65,Crab Du Jour Cajun Seafood & Bar,33,4.0,,911.7609059763428,40.893199,-73.819898,810 Pelham Parkway,Pelham,10803,restaurant
66,Dave & Buster's,267,2.0,$$,768.8141011372793,40.89202080339504,-73.82082338602827,881 Pelham Pkwy,Pelham Manor,10803,restaurant
67,Bobos Crab Shack - Coop City,27,3.5,$$,774.3088527771711,40.88087860315926,-73.82519183113857,691 Co Op City Blvd,The Bronx,10475,restaurant
68,Columbus Diner,69,3.0,$$,827.9367004528481,40.894518,-73.824315,754 S Columbus Ave,Mount Vernon,10550,restaurant
69,Cousins Maine Lobster - New York,196,3.5,$$,20854.642744698605,40.75062056634609,-73.99715105833201,,New York,10001,restaurant
70,Mingles,31,2.5,$$,473.2398737340937,40.8846189,-73.8318809,4012 Boston Rd,Bronx,10475,restaurant
71,Royal Caribbean Jamaican Bakery,12,3.5,$$,319.97747272013703,40.8880965331306,-73.8313494797047,3815 Dyre Ave,Bronx,10466,restaurant
72,Luna Pizza,15,3.5,,598.9895990304618,40.8838811784,-73.83301673,4006 Boston Rd,The Bronx,10475,restaurant
73,McDonald's,15,2.5,$,228.3770127954628,40.8856363137326,-73.8268395550949,3550 Conner St,Bronx,10475,restaurant
74,Wingstop,82,2.0,$,857.166090311229,40.890503,-73.81838422209015,4360 Boston Post Rd,Pelham,10803,restaurant
75,The Cafe at Wave Hill,140,4.5,,780.9802546912181,40.900136527179335,-73.91254847266828,675 W 249th St,Bronx,10471,restaurant
76,The Last Stop,119,4.5,$$,862.6208346157086,40.88976,-73.89854,5977 Broadway,Bronx,10471,restaurant
77,Greek Express,246,4.0,$$,900.9977577827595,40.887465130647726,-73.90755915766862,3733 Riverdale Ave,Bronx,10463,restaurant
78,Yo-Burger,283,4.0,$$,903.9972688809588,40.88739,-73.90695,3726 Riverdale Ave,Bronx,10463,restaurant
79,Salvatores of Soho,331,4.0,$$,871.2741489520822,40.8875232,-73.90704,3738 Riverdale Ave,Bronx,10463,restaurant
80,Jake's Steakhouse - Bronx,272,4.0,$$$,786.8299093602091,40.891706,-73.897689,6031 Broadway,Bronx,10471,restaurant
81,Tin Marin,358,4.0,$$,940.2779842556888,40.8870296802542,-73.9068375260971,3708 Riverdale Ave,Bronx,10463,restaurant
82,Claudy's Kitchen,88,4.5,,874.6275750282257,40.88987,-73.89848,5981 Broadway,Bronx,10471,restaurant
83,An Beal Bocht Cafe,148,4.0,$$,885.7997844380066,40.88738,-73.90498,445 W 238th St,Bronx,10463,restaurant
84,Tortoise & Hare,76,4.5,,766.8194921745603,40.89415,-73.89668,6115 Broadway,Bronx,10471,restaurant
85,Neem Indian Cuisine,91,4.5,$$,1066.2420568842683,40.886547,-73.909968,3549 Johnson Ave,New York,10463,restaurant
86,Blackstone Bar & Grill,100,4.0,$$,906.841383368562,40.887361171014,-73.9071422050018,3713 Riverdale Ave,Bronx,10463,restaurant
87,Santa Fe Grill & Bar,106,3.5,$$,790.3023850874491,40.891321,-73.8977337,6025 Broadway,Bronx,10471,restaurant
88,Moon Thai Kitchen,56,4.0,,931.4022758122824,40.88711,-73.90471,438 W 238th St,Bronx,10463,restaurant
89,Broadway Joe's Pizza,72,4.0,$,862.1229797132875,40.8899,-73.89846,5983 Broadway,Bronx,10471,restaurant
90,City Tamale,73,4.5,$,9634.568124940686,40.8102546,-73.8846809,1316 Oak Point Ave,Bronx,10474,restaurant
91,Asian Tokyo,72,3.5,$$,790.54744455679,40.8910472840381,-73.8982448328066,4685 Manhattan College Pkwy,Bronx,10471,restaurant
92,Estrellita Poblana Taqueria Express,52,3.5,,870.8623269235687,40.8897,-73.89853,5975 Broadway,Bronx,10471,restaurant
93,Sloppie Joe's Food Truck,31,5.0,$,4738.09226674252,40.91594,-73.85459,,Yonkers,10704,restaurant
94,Kai Fan Asian Cuisine,52,3.5,$$,924.8416582472112,40.8872367,-73.9074783,3717 Riverdale Ave,Bronx,10463,restaurant
95,Goodfellas Pizza Pasta,84,3.5,$,941.8855633902592,40.886989,-73.904396,3661 Waldo Ave,Bronx,10463,restaurant
96,Best Deli & Grill,35,3.5,$,865.5222336725254,40.8896963247319,-73.8986893552948,201-203 W 242nd St,Bronx,10471,restaurant
97,Tiny's Diner,107,3.0,$$,975.8563809808584,40.8867411222787,-73.9072045235889,3603 Riverdale Ave,Bronx,10463,restaurant
98,A Taste Of Magic,73,4.5,$$$,16289.6670461356,40.76337,-73.989431,733 9th Ave,Manhattan,10019,restaurant
99,Jasper's Gourmet Deli,45,3.5,$,932.4279023392484,40.887024,-73.904602,434 W 238th St,Bronx,10463,restaurant
100,Aoyu Sushi,283,4.5,$$,566.0343664963043,40.8860150724649,-73.9098029583693,3532 A Johnson Ave,Bronx,10463,restaurant
101,Greek Express,246,4.0,$$,564.6996750104998,40.887465130647726,-73.90755915766862,3733 Riverdale Ave,Bronx,10463,restaurant
102,Liebman's Kosher Delicatessen,337,4.0,$$,641.3899151332785,40.88548,-73.90951,552 W 235th St,Bronx,10463,restaurant
103,Yo-Burger,283,4.0,$$,618.5490367313586,40.88739,-73.90695,3726 Riverdale Ave,Bronx,10463,restaurant
104,Kingsbridge Social Club,265,4.5,$$,1129.3921262008269,40.88455,-73.90194,3625 Kingsbridge Ave,Bronx,10463,restaurant
105,Salvatores of Soho,331,4.0,$$,584.6162113994346,40.8875232,-73.90704,3738 Riverdale Ave,Bronx,10463,restaurant
106,Tin Marin,358,4.0,$$,642.2252519508253,40.8870296802542,-73.9068375260971,3708 Riverdale Ave,Bronx,10463,restaurant
107,Leche Y Miel Restaurant,329,4.0,$$,1205.781384770071,40.88373,-73.90183,5761 Broadway,Bronx,10463,restaurant
108,An Beal Bocht Cafe,148,4.0,$$,736.91523919889,40.88738,-73.90498,445 W 238th St,Bronx,10463,restaurant
109,Neem Indian Cuisine,91,4.5,$$,533.5516092095581,40.886547,-73.909968,3549 Johnson Ave,New York,10463,restaurant
110,Cocina Chente,214,4.0,$$,685.6814400595781,40.88620632793199,-73.9071951348118,3535 Riverdale Ave,Bronx,10463,restaurant
111,Bella Notte,226,3.5,$$,591.9420923342741,40.886035,-73.909539,3524 Johnson Ave,Bronx,10463,restaurant
112,Palace of Japan,204,3.5,$$,579.5342014991777,40.88612,-73.91,3505 Johnson Ave,Bronx,10463,restaurant
113,Moss Cafe,168,4.0,$$,654.1500077547487,40.88529937379742,-73.90994947055142,3260 Johnson Ave,Bronx,10463,restaurant
114,Moon Star Grill,128,4.0,$$,571.6066734319645,40.8861089331436,-73.909908766271,3519-25 Johnson Ave,Riverdale,10463,restaurant
115,Blackstone Bar & Grill,100,4.0,$$,598.7718754856076,40.887361171014,-73.9071422050018,3713 Riverdale Ave,Bronx,10463,restaurant
116,Flame,163,4.0,$$$,1306.4160297864305,40.882742,-73.901366,5740 Broadway,Bronx,10463,restaurant
117,Moon Thai Kitchen,56,4.0,,781.1299191984141,40.88711,-73.90471,438 W 238th St,Bronx,10463,restaurant
118,Metate,208,3.0,$$,569.4182335046987,40.8860208,-73.9100364,3515 Johnson Ave,Bronx,10463,restaurant
119,Pizza Chef,72,3.5,$,612.438007348724,40.885555267334,-73.9103546142578,564 W 235th St,Bronx,10463,restaurant
120,City Tamale,73,4.5,$,9262.364611668676,40.8102546,-73.8846809,1316 Oak Point Ave,Bronx,10474,restaurant
121,Kai Fan Asian Cuisine,52,3.5,$$,586.8169210657919,40.8872367,-73.9074783,3717 Riverdale Ave,Bronx,10463,restaurant
122,Sloppie Joe's Food Truck,31,5.0,$,5510.579388179133,40.91594,-73.85459,,Yonkers,10704,restaurant
123,Tiny's Diner,107,3.0,$$,641.6953467482919,40.8867411222787,-73.9072045235889,3603 Riverdale Ave,Bronx,10463,restaurant
124,Goodfellas Pizza Pasta,84,3.5,$,807.4188514332532,40.886989,-73.904396,3661 Waldo Ave,Bronx,10463,restaurant
125,Bronx Alehouse,943,4.0,$$,419.13689380006,40.8846317,-73.899705,216 W 238th St,Bronx,10463,restaurant
126,Kingsbridge Social Club,265,4.5,$$,328.0807997120812,40.88455,-73.90194,3625 Kingsbridge Ave,Bronx,10463,restaurant
127,Leche Y Miel Restaurant,329,4.0,$$,243.0707523298964,40.88373,-73.90183,5761 Broadway,Bronx,10463,restaurant
128,The Bronx Public,568,4.0,$$,385.8612091816973,40.87827,-73.90341,170 W 231st St,Bronx,10463,restaurant
129,S&S Cheesecake,198,4.5,$$,415.7795425645877,40.8847182244062,-73.8995528966188,222 W 238th St,Bronx,10463,restaurant
130,Sam's Pizza,154,4.5,$,374.1915752232704,40.87939,-73.90601,232 W 231st St,Bronx,10463,restaurant
131,Flame,163,4.0,$$$,167.89619159109705,40.882742,-73.901366,5740 Broadway,Bronx,10463,restaurant
132,Aoyu Sushi,283,4.5,$$,765.3348222737177,40.8860150724649,-73.9098029583693,3532 A Johnson Ave,Bronx,10463,restaurant
133,Liebman's Kosher Delicatessen,337,4.0,$$,716.8937853285786,40.88548,-73.90951,552 W 235th St,Bronx,10463,restaurant
134,Yo-Burger,283,4.0,$$,715.5338553659105,40.88739,-73.90695,3726 Riverdale Ave,Bronx,10463,restaurant
135,Greek Express,246,4.0,$$,756.0502399348527,40.887465130647726,-73.90755915766862,3733 Riverdale Ave,Bronx,10463,restaurant
136,Tin Marin,358,4.0,$$,683.4201554142146,40.8870296802542,-73.9068375260971,3708 Riverdale Ave,Bronx,10463,restaurant
137,Salvatores of Soho,331,4.0,$$,753.8024955849991,40.8875232,-73.90704,3738 Riverdale Ave,Bronx,10463,restaurant
138,Picante Picante,187,4.0,$$,402.2443066915204,40.8781,-73.903,156 W 231st St,Bronx,10463,restaurant
139,An Beal Bocht Cafe,148,4.0,$$,670.7516444911505,40.88738,-73.90498,445 W 238th St,Bronx,10463,restaurant
140,The Last Stop,119,4.5,$$,954.5331548828076,40.88976,-73.89854,5977 Broadway,Bronx,10471,restaurant
141,Cocina Chente,214,4.0,$$,622.8133711899966,40.88620632793199,-73.9071951348118,3535 Riverdale Ave,Bronx,10463,restaurant
142,Tibbett Diner,125,4.0,$,539.2167234633025,40.88038,-73.90906,3033 Tibbett Ave,Bronx,10463,restaurant
143,Claudy's Kitchen,88,4.5,,982.547711972684,40.88987,-73.89848,5981 Broadway,Bronx,10471,restaurant
144,Louie's Dale Diner,143,3.5,$$,316.90018273143426,40.87901,-73.90412,189 W 231st St,Bronx,10463,restaurant
145,Smashburger,114,3.5,$$,368.4085183993543,40.88442,-73.90034,193 W 237th St,Bronx,10463,restaurant
146,Moss Cafe,168,4.0,$$,721.6277705796363,40.88529937379742,-73.90994947055142,3260 Johnson Ave,Bronx,10463,restaurant
147,Bella Notte,226,3.5,$$,743.608906246823,40.886035,-73.909539,3524 Johnson Ave,Bronx,10463,restaurant
148,Neem Indian Cuisine,91,4.5,$$,804.5666132253516,40.886547,-73.909968,3549 Johnson Ave,New York,10463,restaurant
149,Palace of Japan,204,3.5,$$,777.3444531938555,40.88612,-73.91,3505 Johnson Ave,Bronx,10463,restaurant
150,The Bronx Public,568,4.0,$$,630.941940284172,40.87827,-73.90341,170 W 231st St,Bronx,10463,restaurant
151,Bronx Alehouse,943,4.0,$$,1286.7014355764586,40.8846317,-73.899705,216 W 238th St,Bronx,10463,restaurant
152,Inwood Farm,699,4.0,$$,765.5352846175714,40.872860841400616,-73.91834640216938,600 W 218th St,New York,10034,restaurant
153,Sam's Pizza,154,4.5,$,498.6142992838781,40.87939,-73.90601,232 W 231st St,Bronx,10463,restaurant
154,Kingsbridge Social Club,265,4.5,$$,1151.0945137046444,40.88455,-73.90194,3625 Kingsbridge Ave,Bronx,10463,restaurant
155,Leche Y Miel Restaurant,329,4.0,$$,1093.489626564403,40.88373,-73.90183,5761 Broadway,Bronx,10463,restaurant
156,Liebman's Kosher Delicatessen,337,4.0,$$,997.7978507562368,40.88548,-73.90951,552 W 235th St,Bronx,10463,restaurant
157,Tibbett Diner,125,4.0,$,453.2384690658171,40.88038,-73.90906,3033 Tibbett Ave,Bronx,10463,restaurant
158,S&S Cheesecake,198,4.5,$$,1280.8895492002805,40.8847182244062,-73.8995528966188,222 W 238th St,Bronx,10463,restaurant
159,Picante Picante,187,4.0,$$,659.8685053196151,40.8781,-73.903,156 W 231st St,Bronx,10463,restaurant
160,Flame,163,4.0,$$$,1040.0944690860242,40.882742,-73.901366,5740 Broadway,Bronx,10463,restaurant
161,Brown Sugar Restaurant,270,3.5,$$$,840.2109295386065,40.869926,-73.915466,5060 Broadway,New York,10034,restaurant
162,G's Coffee Shop,79,4.5,$,1319.646813364706,40.8681434,-73.9216979,634 W 207th St,New York,10034,restaurant
163,Louie's Dale Diner,143,3.5,$$,618.5211200432717,40.87901,-73.90412,189 W 231st St,Bronx,10463,restaurant
164,Moss Cafe,168,4.0,$$,974.6288439553434,40.88529937379742,-73.90994947055142,3260 Johnson Ave,Bronx,10463,restaurant
165,Siam Square,132,3.5,$$,593.4606937056424,40.8786081,-73.9170971,564 Kappock St,Bronx,10463,restaurant
166,Mi Lindo San Miguelito,48,4.0,$$,513.5342601250302,40.88006,-73.90675,257 W 231st St,Bronx,10463,restaurant
167,Garden Cafe,260,3.5,$$,1250.3798994512133,40.8681059,-73.920263,4961 Broadway,New York,10034,restaurant
168,Patacon Pisao Truck,88,4.5,$,1875.7837591724085,40.861288,-73.920191,431 W 202nd St,New York,10034,restaurant
169,El Malecon,204,3.0,$$,613.4240334719599,40.879312610463,-73.90434368176884,5592 Broadway,Bronx,10463,restaurant
170,Taqueria Sinaloense,20,4.5,,216.4091621842151,40.8745319406573,-73.9107076288211,113 W 225th St,Bronx,10463,restaurant
171,El Economico Restaurant,73,3.5,$,586.9167054162745,40.879419,-73.904817,5589 Broadway,The Bronx,10463,restaurant
172,Room 4996,34,5.0,,1138.7145478555958,40.868223,-73.918498,4996 Broadway Ave,New York,10034,restaurant
173,Serrano Salsa,60,4.0,,1163.9050295476022,40.86837,-73.91937,4979 Broadway,New York,10034,restaurant
174,Arturo's Pizzeria,142,2.5,$,235.11189316077557,40.874438,-73.91042,5189 Broadway,New York,10463,restaurant
175,Rory Dolan's Restaurant & Bar,306,4.0,$$,752.2910249631885,40.9048109,-73.868736,890 McLean Ave,Yonkers,10704,restaurant
176,Rambling House,171,3.5,$$,31.742023464615865,40.8983612,-73.8671608,4292 Katonah Ave,Bronx,10470,restaurant
177,Katonah Pizza & Pasta,81,4.0,$,57.94488212003142,40.89879,-73.86759,4307 Katonah Ave,Bronx,10470,restaurant
178,Curry Spot,114,3.5,$$,65.35560267261636,40.89776,-73.86706,4268 Katonah Ave,Bronx,10470,restaurant
179,Heritage Bar & Restaurant,131,4.0,$$,568.4673939246182,40.903261526,-73.8658376068544,960 McLean Ave,Yonkers,10704,restaurant
180,Eileens Country Kitchen,125,3.5,$$,580.2882602064111,40.9033005,-73.86594333,960 McLean Ave,Yonkers,10704,restaurant
181,Salsa Bembe,213,4.0,$$$,1041.6846184973444,40.906942,-73.872127,811 McLean Ave,Yonkers,10704,restaurant
182,Avitabile Deli,33,4.5,$$,564.4285667214764,40.90255,-73.8637,1016 McLean Ave,Yonkers,10704,restaurant
183,The Kitchen,76,3.5,,167.33225235151014,40.899775023465,-73.8674284223638,4330 Katonah Ave,Bronx,10470,restaurant
184,Ali's Roti Shop,104,4.0,$,1004.0466483199724,40.894,-73.85684,4220 White Plains Rd,Bronx,10466,restaurant
185,Keane's Bar and Restaurant,18,4.5,$,196.12482183195627,40.9000331784387,-73.8674560921758,4342 Katonah Ave,Bronx,10470,restaurant
186,Bella Napoli Pizzeria,54,4.0,$$,548.0214835155709,40.9010966,-73.8620706,524 E 240th St,Bronx,10470,restaurant
187,Linda's Pizza,19,4.0,$,186.62521798270137,40.8999499,-73.86747,4336 Katonah Ave,Bronx,10470,restaurant
188,Irish Coffee Shop,59,3.5,$$,595.8513438380929,40.90374,-73.8665,946 McLean Ave,Yonkers,10704,restaurant
189,Paula's Soul Cafe,202,3.0,$$,1158.3415726123808,40.89269,-73.85568,746 E 233rd St,Bronx,10466,restaurant
190,McLean Avenue Bagel Cafe,43,3.5,$$,573.9298547771263,40.9033905,-73.8667255,943 McLean Ave,Yonkers,10704,restaurant
191,Sean's Quality Deli,11,4.0,,69.5039893685188,40.897663,-73.867505,4273 Katonah Ave,Bronx,10470,restaurant
192,Angelo Pizzeria,49,3.5,$$,562.3502980089951,40.903021795278526,-73.86501504927814,986 McLean Ave,Yonkers,10704,restaurant
193,Jerk House,62,3.5,$$,1004.5973024064534,40.89464,-73.85648,4246 White Plains,Bronx,10466,restaurant
194,Casa Mia,78,3.5,$$,1090.7893647541089,40.9051129697803,-73.8580121863904,132 Bronx River Rd,Yonkers,10704,restaurant
195,Oshima Japanese and Tex-Mex Express,56,3.0,$,576.0001040926192,40.903410539031,-73.8663598895073,954 B Mclean Ave,Yonkers,10704,restaurant
196,Carifesta Restaurant,22,4.0,$,959.7436251946946,40.89485,-73.8568,4251 White Plains Rd,Bronx,10466,restaurant
197,McKeon's Bar and Restaurant,24,3.5,$$,571.1516192211278,40.902972,-73.864453,996 McLean Ave,Yonkers,10704,restaurant
198,Bella Napoli 2,18,3.5,$,165.59472311217084,40.89678,-73.86734,4235 Katonah Ave,Bronx,10470,restaurant
199,New Dragon Star Chinese Kitchen,14,4.0,$,1011.1607198224036,40.89393,-73.85677,4216 White Plains Rd,Bronx,10466,restaurant
200,Curry & Kebab,95,4.0,$$,351.1761215197638,40.8740694334906,-73.8795868679881,3111 Bainbridge Ave,Bronx,10467,restaurant
201,Lexa Bar & Garden,132,4.0,$$,593.1394451249289,40.872080983727145,-73.87751956903072,357 E 204th St,Norwood,10467,restaurant
202,Nicky's Coffee Shop,71,4.0,$,259.039994312867,40.8748959634318,-73.879283460723,3140 Bainbridge Ave,Bronx,10467,restaurant
203,Queen Of Tacos,119,3.5,$$,475.6831470317539,40.880223,-73.883453,9 E Mosholu Pkwy N,Bronx,10467,restaurant
204,Tasty Picks,96,3.5,$,502.7453082900432,40.8817454174423,-73.8794161271287,89 E Gunhill Rd,New York,10467,restaurant
205,Mexicana Deli Grocery,47,4.0,$,559.3602488875808,40.87233,-73.87775,339 E 204th St,Bronx,10467,restaurant
206,Marconi's Pizza & Restaurant,63,3.5,$,438.1126775018906,40.88092,-73.87779,181 E Gun Hill Rd,Bronx,10467,restaurant
207,Sal's Pizzeria,68,3.5,$,226.4055034912548,40.87531,-73.87966,3167 Bainbridge Ave,Bronx,10467,restaurant
208,Aman,37,4.5,$,880.9802484667001,40.885147,-73.8794078,3594 Jerome Ave,Bronx,10452,restaurant
209,Jerome Pizza,81,4.0,$,910.9250432075478,40.873216463621,-73.8888399776716,21 Bedford Park Blvd E,Bronx,10468,restaurant
210,Anthony's Famous Gourmet Deli,34,4.0,$,436.1664542768761,40.88099,-73.87793,169 E Gun Hill Rd,Bronx,10467,restaurant
211,National Restaurant & Coffee Shop,75,4.0,$,921.6986125959452,40.8729995,-73.8891447,8 Bedford Park Blvd E,Bronx,10468,restaurant
212,Kawah Chinese Restaurant,29,4.0,$,589.5214465727091,40.87385,-73.88482,3044 Valentine Ave,Bronx,10458,restaurant
213,Pique 86,43,4.5,$,1244.569123971334,40.8696737140417,-73.8902724534273,220 E 198th St,Bronx,10458,restaurant
214,M & R Pizza,34,4.0,$,490.3995206666476,40.8806643,-73.8830342,7 E 208th St,Bronx,10467,restaurant
215,La Casa De Frida,13,4.5,,474.8054952809996,40.87302,-73.87837,307 E 204th St,Bronx,10467,restaurant
216,Las Maravillas de Mexico Restaurant,59,3.5,$$,908.6883889667422,40.87329,-73.88896,11 Bedford Park Blvd E,Bronx,10468,restaurant
217,Bedford Cafe & Restaurant,126,3.0,$$,916.5082646254764,40.87343,-73.88914,1 Bedford Park Blvd E,Bronx,10468,restaurant
218,Five Star Pizza & Burger,18,4.0,,479.144066758383,40.87939,-73.8744639,295 E Gun Hill Rd,Bronx,10467,restaurant
219,House Pizza,24,3.5,$,548.5241815837372,40.8740692,-73.884406,246 E 204th St,Bronx,10458,restaurant
220,Happy Dragon,24,3.5,$,499.7150989336792,40.88045,-73.8836,3388 Jerome Ave,Bronx,10467,restaurant
221,My Place Pizza,15,4.5,$,1243.297201189251,40.869103,-73.889633,240 E 198th St,Bronx,10458,restaurant
222,La Cabana 2 Salvadorena Restaurant,14,3.5,$$,662.6801839759434,40.875681,-73.886979,3150 Villa Ave,Bronx,10468,restaurant
223,Blimpie,5,4.5,$,509.87057472515056,40.8818271,-73.8796238,85 E Gun Hill Rd,Bronx,10467,restaurant
224,Tito’s Halal food,4,5.0,,479.6372559426538,40.88153046762362,-73.87906183094638,110 East Gunhill Rd,Bronx,10467,restaurant
225,Agra Grill,84,4.0,$$,587.1251705794303,40.88465,-73.86244,3835 White Plains Rd,Bronx,10467,restaurant
226,Gold Star Jerk & Seafood Center,96,3.5,$$,516.820357275792,40.88335,-73.8627801,3768 White Plains Rd,Bronx,10467,restaurant
227,Royal Coach Diner,225,3.5,$$,987.4364244414688,40.8724886,-73.8542747,3260 Boston Rd,Bronx,10469,restaurant
228,7 Spices Carribean Restaurant,23,4.5,$$,686.4110458437245,40.8752518,-73.8601151,906 E Gun Hill Rd,New York,10469,restaurant
229,Jerry's Pizza,24,4.5,$,893.404915945416,40.87595,-73.84922,3430 Boston Rd,Bronx,10469,restaurant
230,Rocatone Seafood Restaurant,38,3.5,$,511.9510642624627,40.8825792,-73.8631851,3740 White Plains Rd,Bronx,10467,restaurant
231,Richie Rich Carribean,110,3.0,$$,851.0231834890978,40.87599046889501,-73.84983858465729,3357 Fish Ave,Bronx,10469,restaurant
232,Coffee Bay Restaurant,13,4.5,,990.872358139498,40.8773,-73.84673,3431 Eastchester Road Bronx New York,The Bronx,10469,restaurant
233,Frank's Soup Bowl,29,3.0,$,421.0253009598413,40.87747,-73.85917,3580 Bronxwood Ave,Bronx,10469,restaurant
234,holyfruits juice press,6,5.0,,677.1081360314776,40.88652,-73.86097,3932 White Plains Rd,Bronx,10466,restaurant
235,The Good Dine,29,3.0,$,660.2439686654794,40.88625,-73.86112,3922 White Plains Rd,Bronx,10466,restaurant
236,Cousins Maine Lobster - New York,196,3.5,$$,18668.761170297545,40.75062056634609,-73.99715105833201,,New York,10001,restaurant
237,Les Q Carribbean Restaurant,8,4.0,,288.5229436692058,40.8833282552608,-73.8561121681773,3854 Bronxwood Ave,Bronx,10469,restaurant
238,D'Angelo's Pizza & Pasta,25,3.0,$$,693.7083178168881,40.87526,-73.86028,902 E Gun Hill Rd,Bronx,10469,restaurant
239,Laconia Pizza,6,4.5,$,804.521985463875,40.88472,-73.84919,3985 Laconia Ave,Bronx,10466,restaurant
240,Tien Lung Chinese Restaurant,5,4.0,,758.059312672231,40.88755,-73.8604,3966 White Plains Rd,Bronx,10466,restaurant
241,Sing Loon Chinese Kitchen,5,4.0,$,656.781405977996,40.8791809,-73.8649597,3606 White Plains Rd,Bronx,10467,restaurant
242,Big Wong Chinese Restaurant,6,3.5,$,772.0115346190325,40.88456,-73.849479,3975 Laconia Ave,Bronx,10466,restaurant
243,Mandarin Wok Restaurant,8,4.0,$$,1101.307364563091,40.8723498946071,-73.8511595766225,1232 E Gun Hill Rd,New York,10469,restaurant
244,Richie Rich Express,19,2.5,$,674.1719636695844,40.8862167501152,-73.8616185124991,705 E 222nd St,Bronx,10467,restaurant
245,Snacks station,3,4.5,,698.8525224805707,40.8788113,-73.86521929999999,3572 White Plains Rd,Bronx,10467,restaurant
246,Flamez Cuisine,2,4.5,,55.07714362981349,40.88055,-73.8575,3728 Bronxwood Ave,The Bronx,10469,restaurant
247,Top of the Hill Restaurant,3,3.5,,472.5626674871949,40.878413,-73.861866,3601 Barnes Ave,Bronx,10467,restaurant
248,Good Taste Chinese Restaurant,10,3.0,,872.5176405478767,40.8755989,-73.8501511,3416 Boston Rd,Bronx,10469,restaurant
249,Domino's Pizza,84,1.5,$,1020.9559650440722,40.87661,-73.846809,3484 Boston Rd,Bronx,10469,restaurant
250,Fratelli,104,4.0,$$,785.6263041391716,40.862992,-73.8435449,2507 Eastchester Rd,Bronx,10469,restaurant
251,Bagels On Bartow,69,4.0,$,559.8966472841922,40.8692951,-73.8299709,2033 Bartow Ave,Bronx,10475,restaurant
252,Sangria Cafe,244,3.5,$$,770.5524382364874,40.8694235021877,-73.8272849569855,2085 Bartow Ave,Bronx,10475,restaurant
253,Caridad and Louie's Restaurant,182,3.0,$$,206.1640745506578,40.86587,-73.83774,1660 E Gun Hill Rd,Bronx,10469,restaurant
254,Nick's Pizza Restaurant,77,4.0,$,953.979619401152,40.8703332,-73.8462856,1356 E Gun Hill Rd,Bronx,10469,restaurant
255,Outback Steakhouse,199,3.0,$$,683.4184594369843,40.8644057568953,-73.8283454105652,270 Baychester Ave,Bronx,10475,restaurant
256,Dallas BBQ,300,2.5,$$,940.0388069632542,40.867923785830165,-73.8247076,2160 Bartow Ave,Bronx,10475,restaurant
257,Shake Shack Bay Plaza,23,4.0,$$,425.17036134546856,40.86725942114285,-73.83076931846527,344 Baychester Ave,Bronx,10475,restaurant
258,Panera Bread,169,2.5,$$,678.0772647313587,40.8678662949,-73.8278447092,340 Baychester Avenue,Bronx,10475,restaurant
259,Misto Restaurant and Bar,21,4.5,,972.0648639173407,40.85994583652971,-73.84287431719666,2314 Eastchester Rd,Bronx,10469,restaurant
260,Olive Garden Italian Restaurant,209,2.5,$$,729.8759074034333,40.864583,-73.827656,200 Baychester Ave,The Bronx,10475,restaurant
261,Red Lobster,220,2.5,$$,780.3009454550343,40.8690608415422,-73.826987,2090 Bartow Ave,Bronx,10475,restaurant
262,The Dumplin Cove ,76,3.0,$$,1000.1883578168364,40.87583,-73.83616,1530 E 222nd St,Bronx,10469,restaurant
263,Nora Pizza,28,3.5,$,782.0607946867808,40.86255535700862,-73.84315427607456,2456 Eastchester Rd,Bronx,10469,restaurant
264,Chuck E. Cheese,30,3.5,$$,455.6061050736466,40.8632477,-73.8332358,1816 Gunhill Rd,Bronx,10469,restaurant
265,Xin Hi,46,3.0,$$,727.2900470712625,40.87033,-73.82848,2051 Bartow Ave,East Bronx,10475,restaurant
266,Villa Maria Pizzeria,25,3.5,$,805.0623353358858,40.8622513062393,-73.8431831513097,2440 Eastchester Rd,Bronx,10469,restaurant
267,Moe's Southwest Grill,12,4.5,,749.1249291882149,40.864316,-73.8275476,200 Baychester Ave,Bronx,10475,restaurant
268,Dragon City,47,3.0,$,855.3673714678445,40.869,-73.82613,2102 Bartow Ave,Bronx,10475,restaurant
269,No 1 Restaurant,13,3.5,$,649.350359685395,40.86977,-73.84262,3004 Eastchester Rd,Bronx,10469,restaurant
270,Mamma Lorna's Restaurant,4,5.0,,678.2421038465957,40.8696399,-73.84299,3007 Eastchester Rd,Bronx,10469,restaurant
271,Capri IV Deli Inc,13,3.5,$,717.3248883198992,40.86981,-73.82821,2073 Bartow Ave,Bronx,10475,restaurant
272,Rich Restaurant,26,3.0,$$,816.1627422090972,40.86254,-73.84363,2485 Eastchester Rd,Bronx,10469,restaurant
273,Outback Steakhouse,10,4.5,,966.8891065129648,40.86827209830537,-73.82445212944779,2100 Bartow Ave,Bronx,10475,restaurant
274,Pizza Hut,33,2.0,$,258.2097653754454,40.8686267,-73.83380771265149,2829 Edson Ave,Bronx,10469,restaurant
275,Patricia's,595,4.0,$$,929.1970978705766,40.84912,-73.8533099,1082 Morris Park Ave,Bronx,10461,restaurant
276,Enzo's of Williamsbridge,147,4.0,$$,366.9830598287282,40.85413,-73.85412,1998 Williamsbridge Rd,Bronx,10461,restaurant
277,SOFRA  - Traditional Greek & Albanian cuisine,49,4.5,$$,327.0808342742136,40.8545299,-73.85499,2011A Williamsbridge Rd,Bronx,10461,restaurant
278,Venezia Pizzeria,52,4.5,$,277.5715769087535,40.85993,-73.85515,1115 Astor Ave,Bronx,10469,restaurant
279,Sorrento Pizzeria,96,4.0,$,328.2729083817612,40.85447,-73.85438,2004 Williamsbridge Rd,Bronx,10461,restaurant
280,John & Joe's Pizzeria,193,4.0,$,987.9269496167684,40.8545949,-73.86578,749 Lydig Ave,Bronx,10462,restaurant
281,F & J Pine Restaurant,659,3.5,$$,1153.5590001174978,40.848685,-73.862069,1913 Bronxdale Ave,Bronx,10462,restaurant
282,Ez Grill NYC,150,4.0,$,862.6264377261973,40.8543220213677,-73.8641628382638,790 Lydig Ave,Bronx,10462,restaurant
283,Emilio's of Morris Park,210,4.0,$$,922.1076373252704,40.849121,-73.854675,1051 Morris Park Ave,Bronx,10461,restaurant
284,Healthy Fresh,105,4.5,$,969.7977773373336,40.8487099,-73.85532,1033 Morris Park Ave,Bronx,10461,restaurant
285,The Healthy Kitchen,118,4.0,$$,825.6974970548666,40.85035,-73.851727,1135C Morris Park Ave,Bronx,10461,restaurant
286,G & R Deli,45,4.5,$,503.68279452609096,40.853057,-73.853103,1928 Williamsbridge Rd,Bronx,10461,restaurant
287,Pasta-pasta,71,4.0,$$,294.49192077933174,40.8546061,-73.8549207,2023 Williamsbridge Rd,Bronx,10461,restaurant
288,Fratelli,104,4.0,$$,1123.8497772831167,40.862992,-73.8435449,2507 Eastchester Rd,Bronx,10469,restaurant
289,Liberty Donuts & Coffee Shop,48,4.0,$$,257.04840829944044,40.8548833429813,-73.8550067692995,2059 Williamsbridge Rd,Bronx,10461,restaurant
290,Mr.Q's,100,3.5,$$,202.52467157044123,40.8557802,-73.8558213,2115 Williamsbridge Rd,Bronx,10461,restaurant
291,Kiraku Sushi,93,3.5,$$,452.6833120004729,40.8532877,-73.8534942,1948 Williamsbridge Rd,Bronx,10461,restaurant
292,Chicken Vs Lamb,68,4.5,$,1221.985676936472,40.8489762040892,-73.845446217529,1825 Eastchester Rd,Bronx,10461,restaurant
293,Ann Clair's Salumeria,73,4.0,$,871.9424153048947,40.8498992919922,-73.851676940918,1130 Morris Park Ave,Bronx,10461,restaurant
294,Burger Time,153,3.5,$$,935.663296889804,40.8490600585938,-73.8534164428711,1080 Morris Park Ave,Bronx,10461,restaurant
295,Nana's Kitchen,30,4.5,,928.40527704508,40.84905,-73.85498,1809 Hone Ave,Bronx,10461,restaurant
296,Fresh Tortillas,58,3.5,$$,188.26304992623392,40.8559418,-73.8558273,2123 Williamsbridge Rd,Bronx,10461,restaurant
297,Tana Thai,214,3.0,$$,1134.4711391383885,40.8513635,-73.8439993,1890 Eastchester Rd,Bronx,10461,restaurant
298,Luciano Pizza,42,4.5,$,1008.2056257648364,40.84844,-73.85621,1005A Morris Park Ave,Bronx,10462,restaurant
299,Emilio’s Original Gourmet Pizza,37,4.5,$,963.6454023253392,40.86564,-73.85811,1015 Allerton Ave,Bronx,10469,restaurant
300,The Original Crab Shanty Restaurant,838,3.5,$$,168.4402279660643,40.848673,-73.787163,361 City Island Ave,Bronx,10464,restaurant
301,Arties Steak & Seafood,317,4.0,$$,271.7665056690483,40.84964,-73.78706,394 City Island Ave,Bronx,10464,restaurant
302,The Black Whale,195,3.5,$$,103.37934627884356,40.846302,-73.786432,279 City Island Ave,Bronx,10464,restaurant
303,Archie's Tap & Table,103,4.5,$$,707.705478433769,40.8531112670898,-73.7894973754883,536 City Island Ave,Bronx,10464,restaurant
304,Sammys Fish Box,933,3.0,$$$,940.0042373219908,40.83905665466202,-73.78371957251213,41 City Island Ave,Bronx,10464,restaurant
305,The Snug,41,4.0,$$,27.188749265081537,40.847187,-73.78617,302 City Island Ave,City Island,10464,restaurant
306,Seafood City,336,3.0,$$,491.9476399532306,40.8509765634744,-73.7896340329358,459 City Island Ave,Bronx,10464,restaurant
307,Clipper Coffee,14,5.0,,108.50039528675376,40.84633,-73.78598,274 City Island Ave,Bronx,10464,restaurant
308,City Island Diner,53,3.5,$,24.382003788399807,40.84717,-73.7862899,304 City Island Ave,City Island,10464,restaurant
309,Scott's Pizza Tours,363,5.0,$$,20705.065412169988,40.750244140625,-73.9970245361328,,New York,10001,restaurant
310,Sea Shore Restaurant & Marina,440,3.0,$$$,858.1345061693286,40.854201,-73.790912,591 City Island Ave,Bronx,10464,restaurant
311,Portofino Restaurant,236,3.5,$$$,754.5825956864006,40.853397,-73.79028,555 City Island Ave,Bronx,10464,restaurant
312,Ohana,171,3.5,$$,590.5804832823089,40.85233,-73.78896,500 City Island Ave,Bronx,10464,restaurant
313,Vistamar,176,3.5,$$$,771.3955328924718,40.8534629795985,-73.7905598622154,565 City Island Ave,Bronx,10464,restaurant
314,King Souvlaki - Astoria,345,4.0,$$,14768.36189216765,40.764355,-73.923586,31 St And 31 Ave,Astoria,11106,restaurant
315,Sammy's Shrimp Box Restaurant,332,2.5,$$$,892.1396106885434,40.83955,-73.78345,64 City Island Ave,Bronx,10464,restaurant
316,Lobster Box Restaurant,211,3.5,$$$,997.9153911216678,40.83865,-73.78313,34 City Island Ave,Bronx,10464,restaurant
317,Mysttik Masaala,57,5.0,,13081.005866485204,40.7764725821216,-73.9106457801393,21-77 31st St,Astoria,11105,restaurant
318,Starving Artist Cafe & Gallery,10,5.0,$$,205.8628148102536,40.845409,-73.786068,249 City Island Ave,Bronx,10464,restaurant
319,City Tamale,73,4.5,$,9229.004474792995,40.8102546,-73.8846809,1316 Oak Point Ave,Bronx,10474,restaurant
320,King Souvlaki,196,4.0,$$,9502.036231678145,40.7625,-73.76961,,Bayside,11361,restaurant
321,Man Overboard Sports Bar and Grill,8,4.5,,208.86978549901696,40.845414,-73.785944,247 City Island Ave,Bronx,10464,restaurant
322,Sea Food Kingz,34,4.0,,991.2210419023618,40.8554067953618,-73.79123255610466,634 City Island Ave,Bronx,10464,restaurant
323,Fella's,15,4.0,$,642.9162058786397,40.85264,-73.78917,522 City Island Ave,Bronx,10464,restaurant
324,Sea Breeze Deli,9,4.0,$,62.32910250412952,40.84769,-73.78682,325 City Island Ave,Bronx,10464,restaurant
325,Hudson Garden Grill,193,4.0,$$,623.4133105066708,40.86544744270648,-73.88154800211242,2900 Southern Blvd,Bronx,10458,restaurant
326,Lexa Bar & Garden,132,4.0,$$,704.3349054058223,40.872080983727145,-73.87751956903072,357 E 204th St,Norwood,10467,restaurant
327,Curry & Kebab,95,4.0,$$,659.3667878743157,40.8740694334906,-73.8795868679881,3111 Bainbridge Ave,Bronx,10467,restaurant
328,Pique 86,43,4.5,$,404.7753292959934,40.8696737140417,-73.8902724534273,220 E 198th St,Bronx,10458,restaurant
329,Jerome Pizza,81,4.0,$,438.07141264354,40.873216463621,-73.8888399776716,21 Bedford Park Blvd E,Bronx,10468,restaurant
330,Webster Cafe & Diner,81,3.5,$,344.3918984346768,40.86729,-73.88391,2873 Webster Ave,Bronx,10458,restaurant
331,Nicky's Coffee Shop,71,4.0,$,740.7219062407037,40.8748959634318,-73.879283460723,3140 Bainbridge Ave,Bronx,10467,restaurant
332,National Restaurant & Coffee Shop,75,4.0,$,411.596251293293,40.8729995,-73.8891447,8 Bedford Park Blvd E,Bronx,10468,restaurant
333,Mexicana Deli Grocery,47,4.0,$,697.3564599603731,40.87233,-73.87775,339 E 204th St,Bronx,10467,restaurant
334,Kawah Chinese Restaurant,29,4.0,$,409.3305431021519,40.87385,-73.88482,3044 Valentine Ave,Bronx,10458,restaurant
335,Bedford Pizza Pasta Restaurant,38,3.5,$,290.3219855014403,40.8677136898041,-73.8840410113335,380 Bedford Park Blvd,Bronx,10458,restaurant
336,Nicks Garden Coffee Shop,29,4.0,$,327.74599334985925,40.86763,-73.8833499,2953 Webster Ave,New York,10458,restaurant
337,Las Maravillas de Mexico Restaurant,59,3.5,$$,457.5189313942925,40.87329,-73.88896,11 Bedford Park Blvd E,Bronx,10468,restaurant
338,My Place Pizza,15,4.5,$,364.0143968433208,40.869103,-73.889633,240 E 198th St,Bronx,10458,restaurant
339,Sal's Pizzeria,68,3.5,$,735.5341206840347,40.87531,-73.87966,3167 Bainbridge Ave,Bronx,10467,restaurant
340,Bedford Cafe & Restaurant,126,3.0,$$,474.5374158201951,40.87343,-73.88914,1 Bedford Park Blvd E,Bronx,10468,restaurant
341,Los Girasoles Restaurant,24,4.5,$,864.8201914702317,40.86304,-73.88982,2613 Webster Ave,Bronx,10458,restaurant
342,Jolly Tinker,34,3.5,$,336.1234971891844,40.867552,-73.883549,2875 Webster Ave,Bronx,10458,restaurant
343,Rose Flower Restaurant,15,4.0,$,281.9543565692748,40.86797,-73.88383,383 Bedford Park Blvd,Bronx,10458,restaurant
344,Tony's Halal Food,19,4.0,$,679.0652722634467,40.8743215931494,-73.891453702655,156-198 Bedford Park Blvd W,Bronx,10468,restaurant
345,House Pizza,24,3.5,$,441.7863772963673,40.8740692,-73.884406,246 E 204th St,Bronx,10458,restaurant
346,La Casa De Frida,13,4.5,,690.7035766810561,40.87302,-73.87837,307 E 204th St,Bronx,10467,restaurant
347,Primavera Cafe,47,3.5,$,1032.2538300887918,40.86198,-73.89145,387 E Fordham Rd,Bronx,10458,restaurant
348,Kingsbridge Coffee Shop & Deli,21,4.0,$,984.0074255699944,40.86735,-73.8966,17 E Kingsbridge Rd,Bronx,10468,restaurant
349,Crab Island Cajun Seafood Express,5,5.0,,148.7474323489009,40.871283,-73.88645,239 Bedford Park Blvd,Bronx,10458,restaurant
350,Salsa Con Fuego,793,3.0,$$,729.2673225366664,40.86227,-73.91149,2297 Cedar Ave,Bronx,10468,restaurant
351,Patacon Pisao Truck,88,4.5,$,1030.801855355458,40.861288,-73.920191,431 W 202nd St,New York,10034,restaurant
352,Dallas BBQ,255,3.0,$$,712.0126318512273,40.86205,-73.91179,281 W Fordham Rd,Bronx,10468,restaurant
353,Bella Pizza,90,4.0,$,1098.665990449981,40.86291,-73.90197,19 W Fordham Rd,Bronx,10468,restaurant
354,Accra,41,3.5,$$,237.9465014026231,40.85402,-73.90849,2041 Davidson Ave,Bronx,10453,restaurant
355,Family's Cafe,51,4.0,$,885.3572094885114,40.860625,-73.902116,2378 Jerome Ave,Bronx,10468,restaurant
356,DisFruta,38,4.5,$,1243.969775429009,40.8646006932796,-73.9194239655506,510 W 207th St,New York,10034,restaurant
357,El Tina Fish Market,63,4.0,$$,1226.376764429547,40.8644535,-73.9193338,500 W 207th St,New York,10034,restaurant
358,Sushi Mambo,287,3.0,$$,1030.801855355458,40.86106,-73.92036,431 W 202nd St,New York,10034,restaurant
359,Diego's Pizza,30,4.0,$$,357.832045389048,40.8529243469238,-73.9086151123047,1995 Jerome Ave,Bronx,10453,restaurant
360,Taco's El Paisanito,34,4.0,$$,736.4208936376133,40.8624202,-73.9093167,202 W Fordham Rd,Bronx,10468,restaurant
361,Gyro King,55,4.0,$,1125.8839364922997,40.86227,-73.90019,50 E Fordham Rd,Bronx,10468,restaurant
362,Elena's Restaurant Authentic Mexican Cusine,45,3.5,$$,432.20931205373006,40.8519563823938,-73.9095045626163,5 West Tremont Ave,New York,10453,restaurant
363,Reyna Restaurant,9,4.5,$,201.53550663350825,40.8543029071622,-73.911898098886,1969 University Ave,West Bronx,10468,restaurant
364,Ming Wong Chinese Restaurant,9,4.5,$,237.00786785350985,40.85394,-73.90876,29 W Burnside Ave,Bronx,10453,restaurant
365,Liberato Restaurant,60,2.5,$$,289.7386020624386,40.853666748772,-73.9083069534393,10 W Burnside Ave,Bronx,10453,restaurant
366,Campesino Dominicano Restaurant,27,3.0,,165.5010911920855,40.8546314413067,-73.9117478763285,1987 University Ave,Bronx,10453,restaurant
367,La Lomita Mexican Deli,46,3.5,$,1214.360625774014,40.8641999,-73.91936,3868 10th Ave,New York,10034,restaurant
368,Xing Wang No. 1,8,4.5,,175.36941984461166,40.85421,-73.91,62 W Burnside Ave,Morris Heights,10453,restaurant
369,Las Sirenas Restaurant mexican restaurant,21,4.0,$,643.0834833804637,40.8498441427946,-73.9107464253902,1896 Jerome Ave,Bronx,10453,restaurant
370,Happy Land Buffet,16,4.0,$,376.6956656269557,40.8531112670898,-73.9075698852539,2028 Jerome Ave,Bronx,10453,restaurant
371,Cocina Taller,88,3.0,$$,1020.7079375996334,40.8614339,-73.9199223,416 B W 203rd St,New York,10034,restaurant
372,Papaye,35,3.5,$$,957.3954030058328,40.8574849,-73.899272,2300 Grand Concourse,Bronx,10458,restaurant
373,54 E Jobo Corporation,5,5.0,,491.9115544031973,40.85519,-73.90458,54 E 181st St,Bronx,10453,restaurant
374,Fa bene Pizza,11,4.5,,771.2400953566305,40.855961,-73.901251,2197 Grand Concourse Ave,Bronx,10453,restaurant
375,Suyo Gastrofusion,289,4.5,$$$,819.154794998151,40.84061,-73.91825,1401 Plaza Dr,Bronx,10452,restaurant
376,Grito Mexican Grill,213,4.0,$$,1139.1908718096906,40.85355,-73.93087,1555 Saint Nicholas Ave,New York,10040,restaurant
377,Golan Heights,74,4.0,$$,819.5868114529171,40.85147,-73.928109,2553 Amsterdam Ave,Manhattan,10033,restaurant
378,Tacos El Paisa,93,4.0,$,1102.0354633313164,40.8533143,-73.9306442,1548 Saint Nicholas Ave,New York,10040,restaurant
379,Yoly Restaurant,25,4.0,$,215.6662321901097,40.8459999,-73.91998,118 Featherbed Ln,Bronx,10452,restaurant
380,Antojitos Mexicanos,32,4.0,$,993.8206078814036,40.84863,-73.93144,511 West 181st St,New York,10033,restaurant
381,Next Stop Vegan In The Heights,17,5.0,$$,1172.3724142428084,40.85603,-73.92864,1636 St Nicholas Ave,New York,10040,restaurant
382,Seafood House,17,4.0,$,525.9386401457849,40.844448,-73.9153942,12 W Mt Eden Ave,Mount Eden,10452,restaurant
383,Accra,41,3.5,$$,1151.8828908230223,40.85402,-73.90849,2041 Davidson Ave,Bronx,10453,restaurant
384,Oche A Tu Gusto,12,5.0,$,1143.333797059157,40.85413,-73.9304499,1573 St Nicholas Ave,New York,10040,restaurant
385,Las Sirenas Restaurant mexican restaurant,21,4.0,$,809.5251758881392,40.8498441427946,-73.9107464253902,1896 Jerome Ave,Bronx,10453,restaurant
386,Chop Chop,52,3.5,$$,888.4339767739967,40.85012,-73.92987,501 W 184th St,New York,10033,restaurant
387,Elena's Restaurant Authentic Mexican Cusine,45,3.5,$$,977.5076358876456,40.8519563823938,-73.9095045626163,5 West Tremont Ave,New York,10453,restaurant
388,Golden City Chinese Restaurant,13,4.5,$,820.8272348469818,40.8513247,-73.9283376,2545 Amsterdam Ave,New York,10033,restaurant
389,Diego's Pizza,30,4.0,$$,1077.0055227934863,40.8529243469238,-73.9086151123047,1995 Jerome Ave,Bronx,10453,restaurant
390,My Pizza,49,2.5,$$,313.66291639330205,40.849785,-73.9168998,1723 University Ave,Bronx,10453,restaurant
391,Viva Mexico Mexican Cuisine,31,3.5,,1142.3925095057657,40.85427,-73.93035,1577 St Nicholas Ave,New York,10040,restaurant
392,Zoe Restaurant Bar & Lounge,31,4.0,$$,1134.701432301171,40.85368,-73.93084,1559 Nicholas Ave,New York,10040,restaurant
393,Munch Time Diner,26,3.5,$,913.58677827172,40.8399606,-73.9168665,21 E 170th St,Bronx,10452,restaurant
394,Mediterraneo Pizza,27,3.5,$,1153.592131725788,40.854724,-73.93,1593 St Nicholas Ave,New York,10040,restaurant
395,Reyna Restaurant,9,4.5,$,966.8050526638935,40.8543029071622,-73.911898098886,1969 University Ave,West Bronx,10468,restaurant
396,Kingston Food Truck,24,4.5,$$,7234.963618196482,40.8199828644325,-73.8418828923859,570 Zerega Ave,Bronx,10473,restaurant
397,Gotta Getta Pizza,7,4.5,,652.0696539690624,40.84717,-73.91173,1735 Townsend Ave,Bronx,10453,restaurant
398,West 190 Pizza,19,4.0,$,1160.3732867889214,40.8550938439257,-73.9296631269694,1611 Saint Nicholas Ave,New York,10040,restaurant
399,Carl's Steaks,9,4.0,$,833.6593148853792,40.8404019155625,-73.9194887407227,161 St And River Ave,Bronx,10452,restaurant
400,Antonio's Trattoria,982,4.5,$$,1125.0230161523705,40.854131,-73.886601,2370 Belmont Ave,Bronx,10458,restaurant
401,Com Tam Ninh Kieu,493,4.0,$$,686.3903546236298,40.86702,-73.8982,2641 Jerome Ave,Bronx,10468,restaurant
402,Trattoria Zero Otto Nove,846,4.0,$$,961.9395180629002,40.854779,-73.888474,2357 Arthur Ave,Bronx,10458,restaurant
403,Casa Della Mozzarella Italian Deli,235,5.0,$$,983.8109053156636,40.85533,-73.88742,604 E 187th St,Bronx,10458,restaurant
404,Joe's Italian Deli,169,5.0,$$,1199.9824517711922,40.8544073,-73.8848751,685 E 187th St,Bronx,10458,restaurant
405,Mike's Deli Arthur Avenue,249,4.0,$$,1026.806723233315,40.85416,-73.88817,2344 Arthur Ave,Bronx,10458,restaurant
406,Dominick's Restaurant,408,4.0,$$,973.562235043639,40.85434,-73.889,2335 Arthur Ave,Bronx,10458,restaurant
407,Pugsley's Pizza,177,4.5,$,1005.6048156506712,40.85881,-73.88475,590 E 191st St,Bronx,10458,restaurant
408,Full Moon Pizzeria,329,4.0,$,972.8242919581317,40.85536,-73.88758,600 E 187th St,Bronx,10458,restaurant
409,Tino's Delicatessen,209,4.0,$$,975.22556706934,40.855761,-73.887075,2410 Arthur Ave,Bronx,10458,restaurant
410,Enzos of Arthur Avenue,372,4.0,$$,952.5320813778133,40.85471669732672,-73.8887236,2339 Arthur Ave,Bronx,10458,restaurant
411,Roberto's,284,4.0,$$$,1047.2054635779718,40.85372,-73.88834,603 Crescent Ave,Bronx,10458,restaurant
412,Arthur Ave Fiasco,131,4.5,$$,994.4475702330112,40.854825,-73.887862,2376 Arthur Ave,Bronx,10458,restaurant
413,188 Bakery Cuchifritos,91,4.0,$,174.02645959740184,40.8614682,-73.8983208,158 E 188th St,Bronx,10468,restaurant
414,San Gennaro Trattoria Restaurant Bar,210,4.0,$$,996.3977370562924,40.8540465225016,-73.8889484480023,2329 Arthur Ave,West Bronx,10458,restaurant
415,Bella Pizza,90,4.0,$,497.8003549784641,40.86291,-73.90197,19 W Fordham Rd,Bronx,10468,restaurant
416,Clinton Hall Bronx,209,4.0,$$,987.663808483018,40.85735,-73.88574,601 E 189th St,Bronx,10458,restaurant
417,Mario's Restaurant,315,4.0,$$,1014.4888890340652,40.8542,-73.88857,2342 Arthur Ave,Bronx,10458,restaurant
418,ÇKA KA QËLLU,113,4.5,$$,1055.3920244006229,40.8538017786913,-73.8882422081079,2321 Hughes Ave,Bronx,10458,restaurant
419,Emilia's Restaurant,217,4.0,$$,986.3084145495914,40.85415,-73.88894,2331 Arthur Ave,Bronx,10458,restaurant
420,Bronx Night Market,38,4.5,$$,519.82843822509,40.860748,-73.890254,1 Fordham Plz,Bronx,10458,restaurant
421,Michaelangelo's Little Italy,251,3.5,$$,946.9013818065964,40.8573321267268,-73.8862630999689,2477 Arthur Ave,Bronx,10458,restaurant
422,Trattoria Tra di Noi,173,4.0,$$,1046.628649185655,40.85493,-73.8869,622 East 187th St,Bronx,10458,restaurant
423,Gerbasi Ristorante,194,4.0,$$,959.8309525664152,40.855704054640576,-73.88741072750854,2389 Arthur Ave,Bronx,10458,restaurant
424,Estrellita Poblana III,186,4.0,$$,1029.7965750093476,40.853828,-73.888672,2328 Arthur Ave,Bronx,10458,restaurant
425,El Nuevo Bohio Lechonera,111,3.5,$$,165.2638232225256,40.844086,-73.887903,791 E Tremont Ave,Bronx,10460,restaurant
426,Cosmo's Restaurant,27,4.5,$,342.89077888421326,40.84481,-73.890337,726 E Tremont Ave,Bronx,10457,restaurant
427,North Star Cafe,59,3.0,$$,67.86287620647778,40.84316,-73.88682,850 E Tremont Ave,Bronx,10460,restaurant
428,Cachapa Cachapa,42,4.0,$,962.8331491334928,40.8470732,-73.8972239,1903 Bathgate Ave,Bronx,10457,restaurant
429,Roy's Restaurant & Bar,45,2.5,$$,117.9505495863221,40.84272,-73.88594,880 E Tremont Ave,Bronx,10460,restaurant
430,IHOP,109,2.5,$$,660.7471627934033,40.83708,-73.88479,961 East 174th St,Bronx,10460,restaurant
431,Caribbean Sunshine Restaurant,17,4.0,$,962.3264993347076,40.84012,-73.87634,1111 E Tremont Ave,Bronx,10460,restaurant
432,Linda's Pizza,21,3.0,$,355.30094162821337,40.84507,-73.89014,729 E Tremont Ave,Bronx,10457,restaurant
433,Napoli's Best Pizza,16,4.0,$,882.6872283774176,40.84681,-73.8963,521 E Tremont Ave,Bronx,10457,restaurant
434,Jimbos Hamburgers,32,3.0,$,899.3638561290842,40.84686,-73.89651,515 E Tremont Ave,Bronx,10457,restaurant
435,Pizza Italia,13,3.5,,426.1646687564688,40.84563,-73.88405,842 E 180th St,Bronx,10460,restaurant
436,Dynasty Taste,9,4.5,,817.3195792855863,40.846789,-73.895408,539 E Tremont Ave,Bronx,10457,restaurant
437,Alitalia Pizzeria,10,4.0,$$,1021.7570780252054,40.839693,-73.875877,1138 E Tremont Ave,Bronx,10460,restaurant
438,10:02 Lounge & Restaurant,7,3.5,,96.42516604409464,40.84357,-73.88766,806 E Tremont Ave,Bronx,10460,restaurant
439,Mocano's Juice Bar & Grill,6,4.0,,587.8796795879783,40.8461795926399,-73.8926135019656,609 E Tremont Ave,Bronx,10457,restaurant
440,Alex's Tacos,15,3.0,$,278.889657743811,40.8445633970481,-73.8895697146654,744 E Tremont Ave,Bronx,10457,restaurant
441,J&J Restaruant & Cuchifritos,25,2.5,$$,372.3764421642312,40.844966,-73.890611,718 E Tremont Ave,Bronx,10457,restaurant
442,Los Amigos Restaurant,5,4.0,,634.3376517934274,40.84818,-73.88919,674 E 180th St,Bronx,10457,restaurant
443,El Valle Restaurant,47,2.0,$,324.6157524023635,40.84491,-73.88981,733 E Tremont Ave,Bronx,10457,restaurant
444,Domino's Pizza,72,1.5,$,332.23273622524715,40.84209,-73.88354,921 E Tremont Ave,Bronx,10460,restaurant
445,Anthony & Joes Pizza,6,3.5,,140.01821226635514,40.8423080444336,-73.8857727050781,1941 Southern Blvd,New York,10460,restaurant
446,Popeyes Louisiana Kitchen,7,3.5,$,653.6526650065655,40.8369804,-73.8855408,949 E 174th St,Bronx,10460,restaurant
447,Dancing Crane Cafe,14,2.5,$$,989.340775236611,40.849817790858,-73.8803057345682,2300 Southern Blvd,Bronx,10460,restaurant
448,Chinese Fried Chicken,3,4.5,,718.2548502018478,40.83655,-73.88474,985 E 174th St,Bronx,10460,restaurant
449,Checkers,3,4.0,,397.3890660333562,40.845355,-73.890534,711 E Tremont Ave,Bronx,10457,restaurant
450,Fine Food Cuisine,112,4.0,$$,1103.802636769799,40.84519,-73.86704,671 Morris Park Ave,Bronx,10462,restaurant
451,El Nuevo Bohio Lechonera,111,3.5,$$,996.7504594298964,40.844086,-73.887903,791 E Tremont Ave,Bronx,10460,restaurant
452,Caribbean Sunshine Restaurant,17,4.0,$,144.19077426784298,40.84012,-73.87634,1111 E Tremont Ave,Bronx,10460,restaurant
453,The South Of France,29,4.5,$$,1308.1820243747595,40.8316668252024,-73.86611349117314,1800 Westchester Ave,Bronx,10472,restaurant
454,El Salvadoreño,19,3.5,$,411.9330805228961,40.8405891805887,-73.8730707764626,451 Morris Park Ave,New York,10460,restaurant
455,Alitalia Pizzeria,10,4.0,$$,158.97989264116248,40.839693,-73.875877,1138 E Tremont Ave,Bronx,10460,restaurant
456,IHOP,109,2.5,$$,649.7690551197795,40.83708,-73.88479,961 East 174th St,Bronx,10460,restaurant
457,Morris Park Pizzeria,25,4.5,$,1045.5004647117778,40.844675,-73.867414,656 Morris Park Ave,Bronx,10462,restaurant
458,Oasis Mediterranean Restaurant,42,4.0,$$,1283.7302989138957,40.8478206,-73.8671998,1907 White Plains Rd,Bronx,10462,restaurant
459,North Star Cafe,59,3.0,$$,865.9788698393018,40.84316,-73.88682,850 E Tremont Ave,Bronx,10460,restaurant
460,Arth Aljanatain,24,4.0,$$,1280.979476184915,40.84733,-73.86663,700 Rhinelander Ave,Bronx,10462,restaurant
461,Yung Hsin,9,5.0,,922.1051036242346,40.837804523176,-73.8670083135366,1475 Beach Ave,Bronx,10460,restaurant
462,Cachapa Cachapa,19,4.0,,1271.2291813211957,40.83213,-73.86606,1805 Westchester Ave,Bronx,10472,restaurant
463,La Cocina De Yala,46,3.0,,897.0667744245521,40.8346620546749,-73.8691869897021,1756 E 174th St,Bronx,10472,restaurant
464,Fouta African American Restaurant,31,3.5,$$,1244.225571036878,40.83126,-73.86792,1762 Westchester Ave,Bronx,10472,restaurant
465,Roy's Restaurant & Bar,45,2.5,$$,780.0687298360801,40.84272,-73.88594,880 E Tremont Ave,Bronx,10460,restaurant
466,John's Diner,35,3.5,$$,1274.4222496829711,40.83156,-73.86687,1786 Westchester Ave,Bronx,10472,restaurant
467,Golden Eagle II Diner,29,3.0,$,1132.9377881201394,40.844909,-73.866355,682 Morris Park Ave,Bronx,10462,restaurant
468,Pizza Italia,13,3.5,,861.1833314020787,40.84563,-73.88405,842 E 180th St,Bronx,10460,restaurant
469,3A'S Legacy Salad & Grill,5,4.0,$,380.6806539123497,40.840591,-73.873496,445 Morris Park Ave,The Bronx,10460,restaurant
470,Lucky House,3,4.0,,209.55470243124907,40.8400646543025,-73.8753787592561,1151 E Tremont Ave,Bronx,10460,restaurant
471,El Nuevo Pollo Sabroso,17,3.0,$,1050.9880749969775,40.8451109,-73.8677149,651 Morris Park Ave,Bronx,10462,restaurant
472,McDonald's,39,1.0,$,124.86214989206526,40.8403988347241,-73.8769008917825,1101 E Tremont Ave,Bronx,10460,restaurant
473,Taqueria Lupita II,11,3.0,,758.9723943146726,40.8395538330078,-73.8686981201172,1770 E Tremont Ave,Bronx,10460,restaurant
474,Popeyes Louisiana Kitchen,7,3.5,$,712.0961020086093,40.8369804,-73.8855408,949 E 174th St,Bronx,10460,restaurant
475,Suyo Gastrofusion,289,4.5,$$$,795.5369170287481,40.84061,-73.91825,1401 Plaza Dr,Bronx,10452,restaurant
476,Native Noodles,142,4.5,$$,988.3181417069516,40.83824104348622,-73.93765379999999,2129 Amsterdam Ave,New York,10032,restaurant
477,Bronx Drafthouse,232,4.0,$$,968.5025147150004,40.8278536,-73.9245554,884 Gerard Ave,Bronx,10452,restaurant
478,Hungry Bird,231,4.5,$$,1203.1629845819016,40.82844363093081,-73.91674001499564,980 Morris Ave,Bronx,10456,restaurant
479,Eating Tree,142,3.5,$,958.5422710836484,40.8281599,-73.92442,892 Gerard Ave,Bronx,10452,restaurant
480,Hard Rock Cafe,142,3.5,$$,897.864345215625,40.82855,-73.925884,1 E 161st St,Bronx,10451,restaurant
481,Corner Style Jamaican & American,46,4.0,$,561.9447455447631,40.83489,-73.91971,1195 Walton Ave,Bronx,10452,restaurant
482,Barrel 79,56,4.5,$$,1099.4578783975146,40.84118,-73.9377,79 Audubon Ave,New York,10032,restaurant
483,NYY Steak - Yankee Stadium,99,3.5,$$$$,873.5923993397519,40.8287737724852,-73.9256584024287,1 E 161st St,Bronx,10451,restaurant
484,Jad Jaan Thai Vietnamese,39,4.0,,1091.1446356719498,40.84124,-73.93768,83 Audubon Ave,New York,10032,restaurant
485,New San Francisco Restaurant,30,4.0,$,1089.3332627225216,40.84056,-73.93796,59 Audubon Ave,New York,10032,restaurant
486,Kinkhao Thai,48,3.5,,993.4002058934263,40.84079,-73.93648,2200 Amsterdam Ave,New York,10032,restaurant
487,Wimpy's III,45,4.0,$,1238.548471580158,40.84326,-73.93794,1232 St Nicholas Ave,New York,10032,restaurant
488,Tiny's Pizza-N-Pasta,73,3.0,$$,991.3660625463324,40.831184,-73.916679,1113 Grant Ave,Bronx,10456,restaurant
489,Bella Notte,12,4.5,,1127.295061992723,40.842267,-73.937457,104 Audubon Ave,New York,10032,restaurant
490,Molino Rojo Restaurant,105,2.5,$,1011.3608814390274,40.8275999,-73.92424,101 E 161st St,Bronx,10451,restaurant
491,Merienda Snack Bar,11,4.5,$$,989.5262704634662,40.84038889391369,-73.9367595169447,2192 Amsterdam Ave,New York,10032,restaurant
492,Rodriguez Productos Mexicanos,12,4.5,,845.2740527815989,40.83147,-73.91873,190 E 166th St,Bronx,10456,restaurant
493,Munch Time Diner,26,3.5,$,861.0338588149538,40.8399606,-73.9168665,21 E 170th St,Bronx,10452,restaurant
494,Giovanni's Pizza,56,2.5,$$,530.1691512224685,40.83522,-73.92016,76 E 167th St,Bronx,10452,restaurant
495,Emergency Snack Bar,58,2.5,$,594.473084117121,40.8407664,-73.9216364,1354 Edward L Grant Hwy,Bronx,10452,restaurant
496,Carl's Steaks,9,4.0,$,697.1996598422295,40.8404019155625,-73.9194887407227,161 St And River Ave,Bronx,10452,restaurant
497,Papaye Restaurant,39,3.0,$$,836.1491899717365,40.83256,-73.917739,196 McClellan St,Bronx,10456,restaurant
498,El Nuevo Azteca,19,3.5,,965.4764689442306,40.83905,-73.91509,134 E 170th St,Bronx,10452,restaurant
499,Doro's Jamaican Restaurant,24,4.0,,1195.5871301851655,40.829025,-73.916036,270 E 165th,New York,10001,restaurant
500,Porto Salvo,183,4.5,$$,528.8001167298438,40.82368,-73.91294,424 E 161st St,Bronx,10451,restaurant
501,Xochimilco Family Restaurant,126,4.5,$$,630.3977870624901,40.8185645,-73.9168277,653 Melrose Ave,Bronx,10455,restaurant
502,Landin Mac & Cheese,147,4.0,$,569.1137766545864,40.8200475,-73.9161737,701 Melrose Ave,Bronx,10455,restaurant
503,Lechonera La Piraña,44,5.0,$,528.4739786043625,40.8156549792076,-73.9062440022826,766 E 152nd St,Bronx,10455,restaurant
504,Hungry Bird,231,4.5,$$,1145.7519136192354,40.82844363093081,-73.91674001499564,980 Morris Ave,Bronx,10456,restaurant
505,Cinco De Mayo,124,3.5,$,357.20370710127736,40.8225131696248,-73.9115964114002,837 Washington Ave,Bronx,10451,restaurant
506,Mexicocina,196,4.0,$$,875.3297741869184,40.811884525549,-73.90966713749,503 Jackson Ave,Bronx,10455,restaurant
507,Seis Vecinos Restaurant,156,3.5,$$,722.9055258215635,40.81533,-73.90317,640 Prospect Ave,Bronx,10455,restaurant
508,Los Nisperos,59,4.0,$$,721.8728055616087,40.81464,-73.9148699,500 E 149th St,New York,10455,restaurant
509,American Grill,18,4.5,,429.0694816256317,40.8188876,-73.9142775,2987 Third Ave,Bronx,10455,restaurant
510,K & L Jamaican American Cuisine,15,4.5,$,336.7624561921842,40.822782369758,-73.9095000441801,3204 3rd Ave,West Bronx,10454,restaurant
511,Restaurante Lechonera & Pollo Sabroso,35,4.0,$$,726.2745506428267,40.82611,-73.90758,3326 3rd Ave,New York,10456,restaurant
512,Fauzia's Heavenly Delights,38,4.5,$,1234.401396645191,40.8264,-73.92115,161st St & Sheridan Ave,Bronx,10451,restaurant
513,Perry’s Coffee Shop,29,4.0,$,401.7146835132178,40.8232002258301,-73.910888671875,496 E 161st St,Bronx,10451,restaurant
514,Bickles 2 Go,53,3.5,$,676.9586493581072,40.820946,-73.917303,726 Courtlandt Ave,Bronx,10451,restaurant
515,Bate Nabaya African & American Restaurant,10,5.0,,585.0352196578924,40.823753,-73.913856,860 Melrose Ave,Bronx,10451,restaurant
516,The Original Venice Restaurant,73,3.5,$$,801.234712006068,40.8127372,-73.9074515,772 E 149th St,Bronx,10455,restaurant
517,Aminas Cafe,19,4.5,,1007.8471857472452,40.82617,-73.91794,890 Morris Ave,Bronx,10451,restaurant
518,Johnson's BBQ,42,3.5,$$,637.7061574724449,40.8223876953125,-73.902717590332,790 E 163rd St,Bronx,10456,restaurant
519,Bona Pizza,23,4.0,$,367.103873396305,40.8178399,-73.90583,751 Westchester Ave,Bronx,10455,restaurant
520,Noches Mexicanas,48,3.5,$$,749.8308643120408,40.81444,-73.91489,524 Brook Ave,Bronx,10455,restaurant
521,Smokey island Grille,56,3.5,$$,1046.159279242032,40.8256002740113,-73.9191630846558,260 E 161st St,Bronx,10451,restaurant
522,La Patrona Restaurant,34,4.0,,998.5363451913788,40.81216619143086,-73.90307632256639,558 Southern Blvd,Bronx,10455,restaurant
523,Daisy's Pizza Place,9,4.5,$,317.0386146324849,40.821045,-73.912773,3075 3rd Ave,Bronx,10451,restaurant
524,Flavas restaurant and lounge,59,2.5,,300.10459454265634,40.8219488,-73.91149779999999,3114 3rd Ave,Bronx,10451,restaurant
525,La Morada,174,4.5,$$,659.9669048221185,40.810552,-73.92142,308 Willis Ave,Bronx,10454,restaurant
526,Chocobar Cortes,306,4.5,$$,953.8978298962244,40.80738298601883,-73.92733223139571,141 Alexander Ave,South Bronx,10454,restaurant
527,Mottley Kitchen,123,4.5,$$,635.6706322680321,40.8100856240886,-73.9216868293002,402 E 140th St,Bronx,10454,restaurant
528,Ceetay,368,4.0,$$,974.1951275611966,40.807149,-73.927612,129 Alexander Ave,Bronx,10454,restaurant
529,Pio Pio 4,224,3.5,$$,185.89723966438405,40.805956,-73.913923,264 Cypress Ave,Bronx,10454,restaurant
530,Beatstro,530,4.0,$$,972.847740187616,40.80737,-73.92752,135 Alexander Ave,Bronx,10454,restaurant
531,Milk Burger,135,4.0,$$,450.39786427036535,40.80357,-73.9201099,148 Bruckner Blvd,Bronx,10454,restaurant
532,Mexicocina,196,4.0,$$,828.9856753206018,40.811884525549,-73.90966713749,503 Jackson Ave,Bronx,10455,restaurant
533,Monte's Brick Oven,169,4.0,$$,909.325279852805,40.807312,-73.926788,136 Alexander Ave,New York,10454,restaurant
534,Hudson Smokehouse,108,4.0,$$,968.9287089032448,40.8070624290931,-73.927560514179,37 Bruckner Blvd,Bronx,10454,restaurant
535,Los Nisperos,59,4.0,$$,947.4114010908193,40.81464,-73.9148699,500 E 149th St,New York,10455,restaurant
536,ININE Bistro,86,4.0,$$,893.5701217957245,40.80674,-73.926696,53 Bruckner Blvd,New York,10454,restaurant
537,Santa Clarita,25,4.5,$,673.1816956469424,40.809496,-73.922842,237 Willis Ave,Bronx,10454,restaurant
538,Golden Pizza,29,4.0,$,315.244815839719,40.80751,-73.9194799,504 E 138th St,Bronx,10454,restaurant
539,Picanteria El Botecito Corporation,17,4.5,$$,396.7786045901781,40.8036447,-73.9195958,151 Bruckner Blvd,Bronx,10454,restaurant
540,Jalisco Tacos,20,4.5,$,117.55757846700465,40.80622,-73.91748,214 St Anns Ave,Bronx,10454,restaurant
541,Angies Cafe & Pizza,42,4.0,$,1093.844492770837,40.81153,-73.92707,2559 3rd Ave,Bronx,10451,restaurant
542,The Original Venice Restaurant,73,3.5,$$,1024.0649588148528,40.8127372,-73.9074515,772 E 149th St,Bronx,10455,restaurant
543,Jimbos Hamburger Palace,28,4.0,$,630.6778972055058,40.80877,-73.92291,232 Willis Ave,Bronx,10454,restaurant
544,Eat Better Today Deli & Grill,14,4.0,$,225.47613788860485,40.8065370599653,-73.9187496783578,527 E 137th St,Bronx,10454,restaurant
545,Noches Mexicanas,48,3.5,$$,915.8974449143456,40.81444,-73.91489,524 Brook Ave,Bronx,10455,restaurant
546,Perry's Coffee Shop,34,4.0,$,1039.9133716810525,40.815113067627,-73.9199295043945,2783 3rd Ave,Bronx,10455,restaurant
547,Master Grill,25,3.0,$$,178.2109386521095,40.805913,-73.913984,262 Cypress Ave,Bronx,10454,restaurant
548,La Charrita,8,4.5,$,829.1930916935637,40.8132075834787,-73.9196064274273,416 Willis Ave,West Bronx,10454,restaurant
549,El Pipirin NYC,4,5.0,,326.13613090317983,40.808731,-73.918205,292 Brook Ave,The Bronx,10454,restaurant
550,La Morada,174,4.5,$$,1209.2622377748885,40.810552,-73.92142,308 Willis Ave,Bronx,10454,restaurant
551,Milk Burger,135,4.0,$$,612.2594400110947,40.80357,-73.9201099,148 Bruckner Blvd,Bronx,10454,restaurant
552,Pio Pio 4,224,3.5,$$,480.9288680933501,40.805956,-73.913923,264 Cypress Ave,Bronx,10454,restaurant
553,Mottley Kitchen,123,4.5,$$,1176.7172349622767,40.8100856240886,-73.9216868293002,402 E 140th St,Bronx,10454,restaurant
554,Picanteria El Botecito Corporation,17,4.5,$$,554.9979315700338,40.8036447,-73.9195958,151 Bruckner Blvd,Bronx,10454,restaurant
555,Santa Clarita,25,4.5,$,1189.1898417903458,40.809496,-73.922842,237 Willis Ave,Bronx,10454,restaurant
556,Golden Pizza,29,4.0,$,832.7297874439422,40.80751,-73.9194799,504 E 138th St,Bronx,10454,restaurant
557,Jalisco Tacos,20,4.5,$,624.3281024844088,40.80622,-73.91748,214 St Anns Ave,Bronx,10454,restaurant
558,Jimbos Hamburger Palace,28,4.0,$,1128.128557311919,40.80877,-73.92291,232 Willis Ave,Bronx,10454,restaurant
559,Eat Better Today Deli & Grill,14,4.0,$,714.2605101754683,40.8065370599653,-73.9187496783578,527 E 137th St,Bronx,10454,restaurant
560,Master Grill,25,3.0,$$,480.8013777418288,40.805913,-73.913984,262 Cypress Ave,Bronx,10454,restaurant
561,Walnut Bus Stop,20,2.5,$,261.9418330761948,40.80048,-73.91064,881 E 134th St,Bronx,10454,restaurant
562,The Locust Restaurant,7,4.0,,649.9651338593159,40.80363,-73.9059599,305 Locust Ave,Bronx,10454,restaurant
563,El Pipirin NYC,4,5.0,,888.000815893704,40.808731,-73.918205,292 Brook Ave,The Bronx,10454,restaurant
564,Taco Veloz,16,4.0,$$,1275.626091376317,40.8098182678223,-73.9238662719727,359 East 138th St,Bronx,10454,restaurant
565,Angela's Cuisine,6,4.5,,1023.3049298510828,40.808358,-73.921564,440 E 138th St,Bronx,10454,restaurant
566,Fast Wok,8,4.0,,846.7405753523715,40.808,-73.9187199,260 Brook Ave,Bronx,10454,restaurant
567,Grand Stop Grocery,3,4.5,,384.5543318492485,40.8052,-73.9129,713 E 138th St,Bronx,10454,restaurant
568,No 1 Wok,13,2.5,$,480.8013777418288,40.805913,-73.913984,262 Cypress Ave,Bronx,10454,restaurant
569,Xime Deli,3,5.0,,1007.8773083741412,40.808248,-73.921432,448 E 138th St,The Bronx,10454,restaurant
570,Caridad Express,12,2.5,$$,343.24369558007965,40.80482,-73.91311,710 E 138th St,Bronx,10462,restaurant
571,St Ann's Cafe,10,3.0,$$,765.4180832237528,40.80789,-73.91708,283 St Ann's Ave,Bronx,10454,restaurant
572,St Ann's Fish Market,3,4.5,$$,674.2025581664374,40.8066699,-73.9178,219 Saint Anns Ave,Bronx,10454,restaurant
573,Ray's Pizza Restaurant,10,3.0,$$,696.4078841691162,40.8071518,-73.9179153,553 E 138th St,Bronx,10454,restaurant
574,El Viejo Gran Cafe Corp,9,3.0,,847.2580992455443,40.807464,-73.919749,498 E 138th St,West Bronx,10454,restaurant
575,The Boogie Down Grind,65,4.5,$,697.0224417619401,40.81858,-73.8888998329639,868 Hunts Point Ave,Bronx,10474,restaurant
576,City Tamale,73,4.5,$,1078.8704187307444,40.8102546,-73.8846809,1316 Oak Point Ave,Bronx,10474,restaurant
577,Lechonera La Piraña,44,5.0,$,882.0706125836195,40.8156549792076,-73.9062440022826,766 E 152nd St,Bronx,10455,restaurant
578,Seis Vecinos Restaurant,156,3.5,$$,623.0886572505914,40.81533,-73.90317,640 Prospect Ave,Bronx,10455,restaurant
579,La Patrona Restaurant,34,4.0,,694.6535547533027,40.81216619143086,-73.90307632256639,558 Southern Blvd,Bronx,10455,restaurant
580,El Porton,31,4.0,$$,637.4309689714275,40.8123321379273,-73.9024218544364,576 Southern Blvd,Bronx,10455,restaurant
581,La Cueva Fonda,13,4.0,,358.6661800162188,40.81528,-73.89997,961 Leggett Ave,The Bronx,10455,restaurant
582,The Original Venice Restaurant,73,3.5,$$,1015.8495920652088,40.8127372,-73.9074515,772 E 149th St,Bronx,10455,restaurant
583,Johnson's BBQ,42,3.5,$$,1000.0425256743904,40.8223876953125,-73.902717590332,790 E 163rd St,Bronx,10456,restaurant
584,Tacos Los Tigres Del Bronx,5,5.0,,328.1021864718845,40.81737,-73.8983,962 Longwood Ave,The Bronx,10459,restaurant
585,Bona Pizza,23,4.0,$,898.6626969596108,40.8178399,-73.90583,751 Westchester Ave,Bronx,10455,restaurant
586,Taqueria Mexicocina,20,4.0,$,968.3212468736174,40.8128368845012,-73.9068994362503,800 E 149th St,Bronx,10455,restaurant
587,Margarita's Restaurant,15,3.5,$,592.6567877971479,40.81588,-73.90261,915 Avenue St John,Bronx,10455,restaurant
588,Crab Du Jour - Hunts Point,18,3.5,$$,690.1877277748525,40.820391,-73.891477,925 Hunts Point Ave,Bronx,10459,restaurant
589,Jimbo's Hamburger Palace,26,3.5,$,731.4816275807686,40.8210291713476,-73.891968280077,1025 E 163rd St,New York,10459,restaurant
590,Giovani's Big Pizza,12,4.0,$,748.7097485620554,40.8199807,-73.9019161,839 Prospect Ave,Bronx,10459,restaurant
591,Reyes Mexican Deli,3,4.5,,231.8160686032242,40.81672,-73.8975,998 Longwood Ave,Bronx,10459,restaurant
592,Kaylah's Hut,30,3.0,$,691.9307266847525,40.81926,-73.90201,805 Prospect Ave,Bronx,10455,restaurant
593,Nalleli Place,3,5.0,,358.6661800162188,40.8153562,-73.9000589,961 Leggett Ave,Woodstock,10455,restaurant
594,East Star Chinese Restaurant,5,5.0,,957.1997012598532,40.8236,-73.89435,987 Westchester Ave,Bronx,10459,restaurant
595,Hunts Point Chinese Restaurant,8,4.0,,551.2824479020056,40.81965,-73.89302,901 Southern Blvd,Bronx,10459,restaurant
596,Georgina Restaurant,4,5.0,,708.621614651856,40.82114,-73.89313,1003 East 163rd St,Bronx,10459,restaurant
597,BMB Randall,20,3.0,$,1002.7787274213168,40.81227,-73.88446,1328 Randall Ave,Bronx,10474,restaurant
598,Don Chile,3,4.5,,181.69116461517228,40.816702,-73.896207,801 Southern Blvd,The Bronx,10459,restaurant
599,Little Chopsticks Kitchen,5,4.0,,357.3732801448927,40.8153985,-73.9000789,959 Leggett Ave,Bronx,10455,restaurant
600,City Tamale,73,4.5,$,128.91071798041648,40.8102546,-73.8846809,1316 Oak Point Ave,Bronx,10474,restaurant
601,The Boogie Down Grind,65,4.5,$,1090.5597280079294,40.81858,-73.8888998329639,868 Hunts Point Ave,Bronx,10474,restaurant
602,Fratilli's Pizza,43,4.0,$,222.96551529631276,40.8095922,-73.8804914,404 Hunts Point Ave,Bronx,10474,restaurant
603,BMB Randall,20,3.0,$,294.60274381854754,40.81227,-73.88446,1328 Randall Ave,Bronx,10474,restaurant
604,Allen Restaurant,6,4.0,$$,628.7202744752709,40.81173,-73.89025,1201 Randall Ave,Bronx,10474,restaurant
605,Delfini Restaurant,12,3.0,$,559.7718757235882,40.809995,-73.889957,500 Tiffany St,Bronx,10474,restaurant
606,The Hunts Point Cafe & Grill,7,2.5,,224.83749180386397,40.809811,-73.880646,402 Hunts Point Ave,Bronx,10474,restaurant
607,Bayside Seafood Company,2,5.0,,685.9341825100388,40.81161,-73.89096,1197 Randall Ave,Bronx,10474,restaurant
608,Milly's Corner Restaurant and Bar,3,4.5,,984.8266934956242,40.81464,-73.89307,1129 Longwood Ave,Bronx,10474,restaurant
609,Americo Petroleum,2,4.5,$,391.6306034456184,40.81176,-73.887,1264 Randall Ave,Bronx,10474,restaurant
610,The Steak Truck,4,2.5,,138.34427448376337,40.81066198962148,-73.88440384693466,,New York,10474,restaurant
611,OSU R.E Grill,1,4.0,,196.40746151533423,40.81036,-73.881042,490 Hunts Point Ave,New York,10474,restaurant
612,Xin Rong,1,5.0,,724.678286607545,40.81553,-73.8871,741 Hunts Point Ave,The Bronx,10474,restaurant
613,Blue Ribbon Fish Company,2,3.0,,903.4962054223475,40.8042299,-73.87643,800 Food Center Dr,Bronx,10474,restaurant
614,New Chinese Fried Chicken,2,3.5,,822.68618861644,40.81668,-73.88678,1312 Lafayette Ave,Bronx,10474,restaurant
615,McDonald's,24,1.0,$,1117.0904826920855,40.8169597103246,-73.8925315439702,875 Garrison Ave,Bronx,10474,restaurant
616,A1 Food,3,2.5,$,830.2410930278254,40.8139,-73.89153,1195 Spofford Ave,Bronx,10474,restaurant
617,Universal Seafood,1,5.0,,903.4962054223475,40.8042299,-73.87643,800 Food Center Dr,Bronx,10474,restaurant
618,Toltis's Mexican Coffee Shop,1,5.0,,968.6195523282936,40.8176,-73.88816,842 Hunts Point Ave,Bronx,10474,restaurant
619,Cris Coffee Shop Restaurant,1,1.0,,628.7202744752709,40.81173,-73.89025,1201 Randall Ave,Bronx,10474,restaurant
620,Porto Salvo,183,4.5,$$,961.9781410077944,40.82368,-73.91294,424 E 161st St,Bronx,10451,restaurant
621,Lechonera La Piraña,44,5.0,$,968.4156408845544,40.8156549792076,-73.9062440022826,766 E 152nd St,Bronx,10455,restaurant
622,Seis Vecinos Restaurant,156,3.5,$$,934.946353723746,40.81533,-73.90317,640 Prospect Ave,Bronx,10455,restaurant
623,Cinco De Mayo,124,3.5,$,857.4459458339194,40.8225131696248,-73.9115964114002,837 Washington Ave,Bronx,10451,restaurant
624,Johnson's BBQ,42,3.5,$$,165.5421607287493,40.8223876953125,-73.902717590332,790 E 163rd St,Bronx,10456,restaurant
625,Restaurante Lechonera & Pollo Sabroso,35,4.0,$$,587.5286449397199,40.82611,-73.90758,3326 3rd Ave,New York,10456,restaurant
626,Prospect Coffee Shop,26,4.0,$,557.2858857669884,40.82804,-73.8984399,1309 Prospect Ave,Bronx,10459,restaurant
627,The Juicers Shack,15,5.0,,871.5486417602017,40.825861,-73.891592,1086 Southern Blvd,The Bronx,10459,restaurant
628,K & L Jamaican American Cuisine,15,4.5,$,678.6116163751764,40.822782369758,-73.9095000441801,3204 3rd Ave,West Bronx,10454,restaurant
629,Bognan International West African Restaurant,25,4.0,$,920.82387059883,40.8318596,-73.9026031,590 E 169th St,Bronx,10456,restaurant
630,Perry’s Coffee Shop,29,4.0,$,796.0676458294186,40.8232002258301,-73.910888671875,496 E 161st St,Bronx,10451,restaurant
631,Jimmys On The Go,19,4.5,,862.1914200388557,40.830781,-73.905346,536 E 168th St,Bronx,10456,restaurant
632,Bona Pizza,23,4.0,$,726.9499393001989,40.8178399,-73.90583,751 Westchester Ave,Bronx,10455,restaurant
633,Mario's Pizza II,29,3.5,$$,663.3088424574737,40.824188,-73.893486,1011 Westchester Ave,Bronx,10459,restaurant
634,La Cueva Fonda,13,4.0,,934.3062038315844,40.81528,-73.89997,961 Leggett Ave,The Bronx,10455,restaurant
635,Giovani's Big Pizza,12,4.0,$,403.03273626019467,40.8199807,-73.9019161,839 Prospect Ave,Bronx,10459,restaurant
636,Juiceade,10,5.0,,1272.7439147122925,40.83204,-73.89116,1345 Southern Blvd,Bronx,10459,restaurant
637,Flavas restaurant and lounge,59,2.5,,860.344716970813,40.8219488,-73.91149779999999,3114 3rd Ave,Bronx,10451,restaurant
638,Back Home 2,30,3.0,$$,821.3513030501863,40.8308899,-73.9001,750 E 169th St,Bronx,10456,restaurant
639,Kaylah's Hut,30,3.0,$,499.5486840764767,40.81926,-73.90201,805 Prospect Ave,Bronx,10455,restaurant
640,East Star Chinese Restaurant,5,5.0,,594.7091222250423,40.8236,-73.89435,987 Westchester Ave,Bronx,10459,restaurant
641,Tacos Los Tigres Del Bronx,5,5.0,,743.8702501002246,40.81737,-73.8983,962 Longwood Ave,The Bronx,10459,restaurant
642,Daisy's Pizza Place,9,4.5,$,988.7888975538688,40.821045,-73.912773,3075 3rd Ave,Bronx,10451,restaurant
643,Margarita's Restaurant,15,3.5,$,860.8952099020449,40.81588,-73.90261,915 Avenue St John,Bronx,10455,restaurant
644,Jimbo's Hamburger Palace,26,3.5,$,860.5690222447737,40.8210291713476,-73.891968280077,1025 E 163rd St,New York,10459,restaurant
645,Red Hook Lobster Pound Truck,195,3.5,$$,896.6522957483911,40.76869,-73.90561,Mobile Truck,New York,10009,restaurant
646,Cea-Lo Cafe,93,3.5,$$,601.50650867903,40.82517,-73.87034,1003 Soundview Ave,Bronx,10472,restaurant
647,Yankee J-Z Pizza,64,4.5,$,1239.8028796652893,40.8292327076197,-73.8757006824017,1599 Westchester Ave,Bronx,10472,restaurant
648,White Castle,30,4.0,$,641.3414427462527,40.8251991271973,-73.8711395263672,1677 Bruckner Blvd,Bronx,10472,restaurant
649,Taste So Good,18,3.5,,35.25386051354624,40.820768,-73.865882,1752 Lafayette Ave,Bronx,10473,restaurant
650,IHOP,109,2.0,$$,766.6044743384168,40.826483,-73.860202,1001 White Plains Rd,Bronx,10472,restaurant
651,Jimbo's Hamburger Palace,28,2.5,$,324.4602701136186,40.823475,-73.867828,912 Soundview Ave,Bronx,10473,restaurant
652,Smashburger,18,3.0,,670.8948652769399,40.82267,-73.85808,1926 Turnball Ave,Bronx,10473,restaurant
653,New Ranch Restaurant,21,3.5,$,1231.782844409852,40.82961,-73.87479,1619 Westchester Ave,Bronx,10472,restaurant
654,Mega Seafood,14,3.5,$,1099.8552158493346,40.828454115746,-73.874356653984,1181 Morrison Ave,Bronx,10472,restaurant
655,New Yummy Chinese Kitchen,6,3.5,,505.8586621366829,40.817212,-73.8623779,1811 Randall Ave,Bronx,10473,restaurant
656,Jimmy's Pizza,19,2.5,$$,661.2637565040337,40.8243446350098,-73.8591537475586,905 White Plains Rd,Bronx,10473,restaurant
657,King Dragon,2,5.0,,457.0858386772952,40.81683,-73.86544,1749 Randall Ave,Bronx,10473,restaurant
658,Ms Caridad,6,3.0,,178.35249896668316,40.821196,-73.8669512,831 Rosedale Ave,Bronx,10473,restaurant
659,Taco Bell,35,2.0,$,698.5367772348081,40.826097,-73.860871,1889 Bruckner Blvd,Bronx,10472,restaurant
660,Seafood Mixer,2,4.5,,349.27179495980425,40.81906245755776,-73.86249185366168,1812 Seward Ave,Bronx,10473,restaurant
661,Boston Market,16,2.0,$$,703.579913797002,40.8240436112216,-73.8584066666667,880 White Plains Rd.,Bronx,10473,restaurant
662,Subway,8,3.0,$,695.1114008291905,40.8231902189491,-73.8734892783567,1646 Bruckner Blvd,Bronx,10473,restaurant
663,McDonald's,35,1.5,$,795.2540044153351,40.8234174738005,-73.8746464951055,1600 Bruckner Blvd,Bronx,10473,restaurant
664,McDonald's,22,2.0,$,690.0483537633647,40.8263848817602,-73.86164188385,1865 Bruckner Blvd,Bronx,10473,restaurant
665,Golden City,2,3.0,,94.71914980178497,40.8216,-73.86661,805 Soundview Ave,Bronx,10473,restaurant
666,Popeyes Louisiana Kitchen,7,2.5,$,646.6492214864011,40.82435,-73.859453,1905 Story Ave,Bronx,10473,restaurant
667,KFC,31,1.5,$,932.6655314241092,40.826788583652,-73.8577092711639,1959 Bruckner Blvd,Bronx,10472,restaurant
668,New Yankee Sk Pizza,3,4.5,$,1189.097412466194,40.82929,-73.87478,1616 Westchester Ave,Bronx,10472,restaurant
669,Burger King,17,1.5,$,628.6583698870609,40.8261004,-73.8624892,1851-59 Bruckner Blvd,Bronx,10472,restaurant
670,Maravilla's Bar & Grill,22,4.5,$$,491.6754126935559,40.81088,-73.85529,254 Soundview Ave,Bronx,10473,restaurant
671,Kingston Food Truck,24,4.5,$$,1843.730193345227,40.8199828644325,-73.8418828923859,570 Zerega Ave,Bronx,10473,restaurant
672,Dynasty,13,3.0,$,153.79408966710815,40.807386,-73.855601,1470 E Ave,Bronx,10462,restaurant
673,Ruthie's Pasteles,2,1.0,,851.4950514364018,40.8137,-73.85782,406 Soundview Ave,Bronx,10473,restaurant
674,Tosca Cafe,482,3.0,$$$,456.1511230226381,40.819109,-73.817517,4038 E Tremont Ave,Bronx,10465,restaurant
675,Tommy's Pizza,142,4.0,$,500.3546383166332,40.8195671,-73.8173523,4033 E Tremont Ave,Bronx,10465,restaurant
676,The Wicked Wolf,114,4.0,$$,514.3503433095563,40.81967,-73.81739,4029 E Tremont Ave,Bronx,10465,restaurant
677,Patricia's Of Tremont,289,4.0,$$,938.0200723797263,40.8231315612793,-73.8192596435547,3883 E Tremont Ave,Bronx,10465,restaurant
678,Ikko Hibachi Sushi Asian Bistro,107,4.0,,708.0601802609544,40.821186,-73.818848,3938 E Tremont Ave,Bronx,10465,restaurant
679,Muscle Maker Grill,124,4.0,$$,492.366169381952,40.8195,-73.8171,4041 E Tremont Ave,Bronx,10465,restaurant
680,Icehouse Cafe Waterfront Restaurant,141,3.5,$$,837.5964791896446,40.816987135363874,-73.80671108161565,140 Reynolds Ave,Bronx,10465,restaurant
681,Frank's Pizza,41,3.5,$,408.8162009496903,40.81876,-73.8173,4106 E Tremont Ave,Bronx,10465,restaurant
682,Green Dragon Restaurant,77,3.0,$$,419.9060415294091,40.818876,-73.816705,4111 E Tremont Ave,Bronx,10465,restaurant
683,Xing & Hui Linda's Kitchen,12,4.0,,589.0154976065711,40.82022,-73.81824,4006 E Tremont Ave,Bronx,10465,restaurant
684,Parq Sports Bar & Grill,38,3.0,$$,604.6301955248285,40.8204451370688,-73.8177331256238,4001 E Tremont Ave,Bronx,10465,restaurant
685,Throggs Neck Fried Chicken & Grill,8,4.0,,590.5853021281077,40.820334079671,-73.8176110759377,4011 East Tremont Ave,Bronx,10465,restaurant
686,La Reina Restaurant,8,3.5,,870.8060398914382,40.82268,-73.81869,3035 Cross Bronx Expy,The Bronx,10465,restaurant
687,Cj Deli & Grocery,5,3.5,$$,411.7257616978084,40.81673,-73.81199,3009 Harding Ave,Bronx,10465,restaurant
688,Hawaii Chinese Restaurant,14,2.5,$,395.8884690722677,40.8186451,-73.8171747,4112 E Tremont Ave,Bronx,10465,restaurant
689,Uncle Louie G,2,2.5,,607.1079590450807,40.82045331188575,-73.81782803374733,4005 E Tremont Ave,Bronx,10465,restaurant
690,F CES,1,4.0,$$,1188.181576805751,40.82377,-73.81041,2 Edgewater Park,Bronx,10465,restaurant
691,Best Gourmet Deli Incorporated,1,3.0,,1051.97526037327,40.82407,-73.82036,3840 E Tremont Ave Frnt 2,Bronx,10465,restaurant
692,Louie & Ernie's Pizza,366,4.5,$,767.470721162613,40.838288,-73.828563,1300 Crosby Ave,Bronx,10461,restaurant
693,Havana Cafe,951,4.0,$$,1119.6949243834204,40.8379,-73.83437,3151 E Tremont Ave,Bronx,10461,restaurant
694,Orrico's Italian Restaurant,54,4.5,,754.5285833650114,40.8476994,-73.8318208,3019 Westchester Ave,The Bronx,10461,restaurant
695,Honey's Thai Pavilion,260,3.5,$$,701.036644661896,40.8477712,-73.8312306,3036 Westchester Ave,Bronx,10461,restaurant
696,Frank's Pizzeria,116,4.5,$,1000.7801832999886,40.8435944773229,-73.8359653694324,2823 Middletown Rd,Bronx,10461,restaurant
697,Barino's Market,51,4.5,$$,441.79660431354296,40.8461336,-73.8194777,3244 Ampere Ave,Bronx,10465,restaurant
698,Sushi Q Japanese Restaurant,113,3.5,$$,521.9830628685025,40.84424,-73.83035,1610 Crosby Ave,Bronx,10461,restaurant
699,Shangerila Restaurant,281,3.0,$$,797.9016945151303,40.847301,-73.8330438,2893 Buhre Ave,Bronx,10461,restaurant
700,Novelty Eats,108,4.0,$$,752.3783999704488,40.847874,-73.83174,1821 Hobart Ave,Bronx,10461,restaurant
701,Crosby Pizza Stop,97,4.0,$,690.591043870863,40.846125,-73.831939,1731 Crosby Ave,Bronx,10461,restaurant
702,Escape Latino,122,4.0,$$,780.8471671606297,40.8483407,-73.8316408,1841 Hobart Ave,Bronx,10461,restaurant
703,Vitos Gourmet Deli,22,4.5,$$,645.8631651487835,40.845561,-73.831657,1715 Crosby Ave,Bronx,10461,restaurant
704,Pruzzo's Stop One Deli,68,4.0,$,770.8095721591615,40.8467672,-73.8326353,2937 Westchester Ave,Bronx,10461,restaurant
705,Mangia's Brick Oven Pizza and Pasta,121,3.5,$,694.0945040582933,40.846699,-73.831687,1760 Crosby Ave,Bronx,10461,restaurant
706,Loretta's Pizza,70,4.0,$,1068.5623845527095,40.835792,-73.818,3276 Layton Ave,Bronx,10465,restaurant
707,Joe's Pizza,45,4.0,$,502.72353862608713,40.844169,-73.830093,3009A Middletown Rd,Bronx,10461,restaurant
708,Quality Grill and Gyro,45,4.0,$$,792.8764371733412,40.84733,-73.83256,1805 Edison Ave,Middletown - Pelham Bay,10461,restaurant
709,Tulcingo Cafe,28,4.5,,693.1174872247246,40.847652,-73.831073,3041 Buhre Ave,Bronx,10461,restaurant
710,Golden Chef,22,4.5,,559.8556904900873,40.8449738353256,-73.8306849996683,1632 Crosby Ave,Bronx,10461,restaurant
711,Shamrock Inn,24,4.5,$$,691.5813503332454,40.846061,-73.83197,1729 Crosby Ave,Bronx,10461,restaurant
712,Top Tortillas,45,4.0,$,667.8393251546453,40.84738,-73.83093,3038 Buhre Ave,Bronx,10461,restaurant
713,Illusions Hookah & Mixology Lounge,140,3.0,$$,977.338841051574,40.8522129,-73.8290069,3229 Westchester Ave,Bronx,10461,restaurant
714,Six Happiness Restaurant,29,4.0,$$,607.4463588629817,40.84057,-73.8295,1378 Crosby Ave,Bronx,10461,restaurant
715,Chirping Chicken,55,3.5,$$,658.2459605052865,40.8474,-73.8308799,3048 Buhre Ave,Bronx,10461,restaurant
716,Mamajuana Cafe The Bronx,395,2.5,$$,1186.7953372406355,40.8357557,-73.8329151,3233 E Tremont Ave,Bronx,10461,restaurant
717,Taqueria Tlaxcalli,732,4.5,$$,193.37360135792412,40.83624,-73.854962,2103 Starling Ave,Bronx,10462,restaurant
718,Estrellita Poblana,299,4.0,$$,573.9258919879197,40.83446,-73.85084,2231 Westchester Ave,Bronx,10462,restaurant
719,George's Diner & Cafe,226,4.0,$,774.6527534542025,40.8367999,-73.84695,2369 Westchester Ave,Bronx,10462,restaurant
720,Tandoori Place,74,4.5,$$,295.08516082081576,40.83597304468253,-73.8536453,2146 Starling Ave,Bronx,10462,restaurant
721,Havana Cafe,251,4.0,$$,652.6614613306828,40.8331000193312,-73.8516100868583,1247 Castle Hill Ave,Bronx,10462,restaurant
722,Ajo & Oregano,468,3.5,$$,654.9751250131338,40.83953,-73.86364,1556 White Plains Rd,Bronx,10462,restaurant
723,Sabrosura Restaurant,295,3.5,$$,787.3544249119401,40.832073,-73.850759,1200 Castle Hill Ave,Bronx,10462,restaurant
724,Kai Sushi Asian Fusion,296,4.0,$$,1053.9641545999666,40.84362,-73.84565,1475 Williamsbridge Rd,Bronx,10461,restaurant
725,Scott's Pizza Tours,363,5.0,$$,15264.25781069567,40.750244140625,-73.9970245361328,,New York,10001,restaurant
726,Brisas Del Caribe,206,3.5,$,747.5248994639381,40.832159,-73.851463,1207 Castle Hill Ave,Bronx,10462,restaurant
727,Step In Restaurant,140,4.0,$$,621.04664648156,40.833886,-73.861084,1309 Metropolitan Ave,Bronx,10462,restaurant
728,La Cocina Boricua,203,3.5,$$,600.6437363710203,40.83449,-73.85047,2245 B Westchester Ave,Bronx,10462,restaurant
729,Sabor Latino Seafood Restaurant,49,4.0,$$,295.3022172399931,40.8365,-73.85314,2161 Starling Ave,Bronx,10462,restaurant
730,Premium Sweets & Restaurant,23,4.5,$$,241.81035499486072,40.8359499,-73.85487,2104 Starling Ave,Bronx,10462,restaurant
731,City Tamale,73,4.5,$,3911.303140297543,40.8102546,-73.8846809,1316 Oak Point Ave,Bronx,10474,restaurant
732,Sabrosura 2,145,4.0,$$,1074.6914442603588,40.8317697392748,-73.86583769469,1808 Westchester Ave,Bronx,10472,restaurant
733,McDermott's Pub,67,4.5,$$,967.5971405882094,40.84276,-73.84622,2634 E Tremont Ave,Bronx,10461,restaurant
734,King Souvlaki - Astoria,345,4.0,$$,9965.236552154827,40.764355,-73.923586,31 St And 31 Ave,Astoria,11106,restaurant
735,Lin's Asian Cuisine,104,3.5,$$,550.9511123717134,40.8426181840383,-73.8538535671128,1506 Bronxdale Ave,East Bronx,10462,restaurant
736,Cross Bronx Pizzeria,65,4.0,$,984.7117945456828,40.830015,-73.850774,2170 Cross Bronx Expy,Bronx,10472,restaurant
737,Packsun Halal Chicken,32,4.5,$,540.4389672688679,40.8339280118632,-73.8523728400469,2160 Westchester Ave,Bronx,10462,restaurant
738,Venice Pizzeria & Restaurant,51,3.5,$$,184.88886547459808,40.8370322,-73.8580406,1539 Unionport Rd,Bronx,10462,restaurant
739,Melanie's Roti & Grill Restaurant,84,3.5,$$,661.2760607621562,40.8333,-73.851045,1248 Castle Hill Ave,Bronx,10462,restaurant
740,Joe's Pizza,29,4.5,$,741.8020966990193,40.83766,-73.86479,1858 Archer St,Bronx,10460,restaurant
741,Fine Food Cuisine,112,4.0,$$,1234.5258791611004,40.84519,-73.86704,671 Morris Park Ave,Bronx,10462,restaurant
742,Havana Cafe,951,4.0,$$,729.7291150829781,40.8379,-73.83437,3151 E Tremont Ave,Bronx,10461,restaurant
743,Da Franco & Tony Ristorante,120,4.5,$$,614.0108496051109,40.8436584,-73.8360596,2815 Middletown Rd,Bronx,10461,restaurant
744,Kai Sushi Asian Fusion,296,4.0,$$,450.4047509351531,40.84362,-73.84565,1475 Williamsbridge Rd,Bronx,10461,restaurant
745,Estrellita Poblana IV,201,4.0,$$,223.03464851811032,40.84221,-73.84381,45 Westchester Sq,Bronx,10461,restaurant
746,George's Diner & Cafe,226,4.0,$,581.2581557461145,40.8367999,-73.84695,2369 Westchester Ave,Bronx,10462,restaurant
747,Shanghai Red Asian Latin Bistro,153,3.5,$$,57.37475977874456,40.8401620296024,-73.8425095552948,127 Westchester Sq,Bronx,10461,restaurant
748,Frank's Pizzeria,116,4.5,$,619.6501509514742,40.8435944773229,-73.8359653694324,2823 Middletown Rd,Bronx,10461,restaurant
749,Estrellita Poblana,299,4.0,$$,996.9840410580308,40.83446,-73.85084,2231 Westchester Ave,Bronx,10462,restaurant
750,Patricia's,595,4.0,$$,1329.7820609775297,40.84912,-73.8533099,1082 Morris Park Ave,Bronx,10461,restaurant
751,McDermott's Pub,67,4.5,$$,413.0905624586598,40.84276,-73.84622,2634 E Tremont Ave,Bronx,10461,restaurant
752,Havana Cafe,251,4.0,$$,1151.780048428186,40.8331000193312,-73.8516100868583,1247 Castle Hill Ave,Bronx,10462,restaurant
753,Sabrosura Restaurant,295,3.5,$$,1192.606100874168,40.832073,-73.850759,1200 Castle Hill Ave,Bronx,10462,restaurant
754,Cestra's Pizza,46,4.0,$,120.70061746928552,40.841423,-73.8431588,44 Westchester Sq,Bronx,10461,restaurant
755,Chicken Vs Lamb,68,4.5,$,968.6536111746842,40.8489762040892,-73.845446217529,1825 Eastchester Rd,Bronx,10461,restaurant
756,Tandoori Place,74,4.5,$$,1093.1418302195696,40.83597304468253,-73.8536453,2146 Starling Ave,Bronx,10462,restaurant
757,Orrico's Italian Restaurant,54,4.5,,1175.2245522295157,40.8476994,-73.8318208,3019 Westchester Ave,The Bronx,10461,restaurant
758,Tremont Diner,91,3.5,$$,422.6331298916987,40.84024,-73.8372,3007 E Tremont Ave,The Bronx,10461,restaurant
759,Ljubo Pizzeria,44,3.5,$,101.82129588922696,40.840336,-73.843345,15 Westchester Sq,Bronx,10461,restaurant
760,Brisas Del Caribe,206,3.5,$,1221.9175798346762,40.832159,-73.851463,1207 Castle Hill Ave,Bronx,10462,restaurant
761,King Souvlaki - Astoria,345,4.0,$$,10901.73245940296,40.764355,-73.923586,31 St And 31 Ave,Astoria,11106,restaurant
762,Shangerila Restaurant,281,3.0,$$,1098.1270173619964,40.847301,-73.8330438,2893 Buhre Ave,Bronx,10461,restaurant
763,City Tamale,73,4.5,$,4917.336100400017,40.8102546,-73.8846809,1316 Oak Point Ave,Bronx,10474,restaurant
764,La Cocina Boricua,203,3.5,$$,976.8423695534952,40.83449,-73.85047,2245 B Westchester Ave,Bronx,10462,restaurant
765,Honey's Thai Pavilion,260,3.5,$$,1219.7031380848632,40.8477712,-73.8312306,3036 Westchester Ave,Bronx,10461,restaurant
766,Bagels and Cream,79,3.5,$,753.1738003774474,40.84719,-73.84437,1728 Eastchester Rd,Bronx,10461,restaurant
767,Taqueria Tlaxcalli,732,4.5,$$,1246.1369175258042,40.83624,-73.854962,2103 Starling Ave,Bronx,10462,restaurant
768,La Masa,498,4.0,$$,998.3843795684083,40.84800080701825,-73.85594720000276,1000 Morris Park Ave,Bronx,10462,restaurant
769,F & J Pine Restaurant,659,3.5,$$,663.1256410817693,40.848685,-73.862069,1913 Bronxdale Ave,Bronx,10462,restaurant
770,Ajo & Oregano,468,3.5,$$,511.31603001817416,40.83953,-73.86364,1556 White Plains Rd,Bronx,10462,restaurant
771,Fine Food Cuisine,112,4.0,$$,192.14492417688072,40.84519,-73.86704,671 Morris Park Ave,Bronx,10462,restaurant
772,Royal Grill Halal Food,497,4.5,$,13838.94791405056,40.75621073292354,-73.98334948251191,44TH St And 6th Ave,New York,10018,restaurant
773,Scott's Pizza Tours,363,5.0,$$,15002.010050855366,40.750244140625,-73.9970245361328,,New York,10001,restaurant
774,Mysttik Masaala,448,4.5,$,12930.632051574086,40.75932,-73.97209,399 Park Ave,New York,10022,restaurant
775,Healthy Fresh,105,4.5,$,1083.6420558718628,40.8487099,-73.85532,1033 Morris Park Ave,Bronx,10461,restaurant
776,Emilio's of Morris Park,210,4.0,$$,1154.018133968876,40.849121,-73.854675,1051 Morris Park Ave,Bronx,10461,restaurant
777,Anthony's Pizza,30,4.5,$,221.38776864151308,40.845529,-73.8656052,715 Morris Park Ave,Bronx,10462,restaurant
778,Tasty Choice,19,4.5,$$,189.6576785500971,40.845256569408,-73.8657185062766,704 Morris Park Ave,The Bronx,10462,restaurant
779,City Tamale,73,4.5,$,4018.345739050252,40.8102546,-73.8846809,1316 Oak Point Ave,Bronx,10474,restaurant
780,King Souvlaki - Astoria,345,4.0,$$,10045.440957521703,40.764355,-73.923586,31 St And 31 Ave,Astoria,11106,restaurant
781,Morris Park Pizzeria,25,4.5,$,154.93717409212906,40.844675,-73.867414,656 Morris Park Ave,Bronx,10462,restaurant
782,Joe's Pizza,29,4.5,$,680.1582633404435,40.83766,-73.86479,1858 Archer St,Bronx,10460,restaurant
783,Biryani Cart,559,3.5,$,13679.948074211934,40.757403,-73.9822503,46th St & 6th Ave,New York,10003,restaurant
784,Oasis Mediterranean Restaurant,42,4.0,$$,474.4539178981677,40.8478206,-73.8671998,1907 White Plains Rd,Bronx,10462,restaurant
785,Mysttik Masaala,57,5.0,,8346.161963928851,40.7764725821216,-73.9106457801393,21-77 31st St,Astoria,11105,restaurant
786,Arth Aljanatain,24,4.0,$$,416.143779297747,40.84733,-73.86663,700 Rhinelander Ave,Bronx,10462,restaurant
787,Luciano Pizza,42,4.5,$,1005.332956360639,40.84844,-73.85621,1005A Morris Park Ave,Bronx,10462,restaurant
788,Nana's Kitchen,30,4.5,,1126.0097881047252,40.84905,-73.85498,1809 Hone Ave,Bronx,10461,restaurant
789,Mysttik Masaala,114,4.5,,13493.22245702242,40.7551374,-73.9760147,250 Park Ave,New York,10172,restaurant
790,Patsy's Pizzeria,134,3.0,$$,935.4160439504096,40.84766,-73.85654,980 Morris Park Ave,Bronx,10462,restaurant
791,King Souvlaki,196,4.0,$$,11906.449300565875,40.7625,-73.76961,,Bayside,11361,restaurant
792,Patricia's,595,4.0,$$,300.584093675901,40.84912,-73.8533099,1082 Morris Park Ave,Bronx,10461,restaurant
793,La Masa,498,4.0,$$,469.1405018464106,40.84800080701825,-73.85594720000276,1000 Morris Park Ave,Bronx,10462,restaurant
794,Kai Sushi Asian Fusion,296,4.0,$$,584.6489970946409,40.84362,-73.84565,1475 Williamsbridge Rd,Bronx,10461,restaurant
795,Emilio's of Morris Park,210,4.0,$$,399.6786427876049,40.849121,-73.854675,1051 Morris Park Ave,Bronx,10461,restaurant
796,Healthy Fresh,105,4.5,$,432.7960709458257,40.8487099,-73.85532,1033 Morris Park Ave,Bronx,10461,restaurant
797,The Healthy Kitchen,118,4.0,$$,330.7954807888931,40.85035,-73.851727,1135C Morris Park Ave,Bronx,10461,restaurant
798,F & J Pine Restaurant,659,3.5,$$,1005.9976114958577,40.848685,-73.862069,1913 Bronxdale Ave,Bronx,10462,restaurant
799,Chicken Vs Lamb,68,4.5,$,446.0116195821968,40.8489762040892,-73.845446217529,1825 Eastchester Rd,Bronx,10461,restaurant
800,Estrellita Poblana IV,201,4.0,$$,813.325648970838,40.84221,-73.84381,45 Westchester Sq,Bronx,10461,restaurant
801,Ann Clair's Salumeria,73,4.0,$,285.59374471176113,40.8498992919922,-73.851676940918,1130 Morris Park Ave,Bronx,10461,restaurant
802,Scott's Pizza Tours,363,5.0,$$,16301.17724272632,40.750244140625,-73.9970245361328,,New York,10001,restaurant
803,Enzo's of Williamsbridge,147,4.0,$$,795.5114886822304,40.85413,-73.85412,1998 Williamsbridge Rd,Bronx,10461,restaurant
804,Burger Time,153,3.5,$$,304.18304732443266,40.8490600585938,-73.8534164428711,1080 Morris Park Ave,Bronx,10461,restaurant
805,SOFRA  - Traditional Greek & Albanian cuisine,49,4.5,$$,867.7084740092582,40.8545299,-73.85499,2011A Williamsbridge Rd,Bronx,10461,restaurant
806,McDermott's Pub,67,4.5,$$,645.4164654517948,40.84276,-73.84622,2634 E Tremont Ave,Bronx,10461,restaurant
807,Nana's Kitchen,30,4.5,,423.79608624913305,40.84905,-73.85498,1809 Hone Ave,Bronx,10461,restaurant
808,Sorrento Pizzeria,96,4.0,$,838.517114308467,40.85447,-73.85438,2004 Williamsbridge Rd,Bronx,10461,restaurant
809,Addeo's of the Bronx,34,4.5,,347.1610457268164,40.848692,-73.8542426,1056 Morris Park Ave,Bronx,10461,restaurant
810,Luciano Pizza,42,4.5,$,494.710075228614,40.84844,-73.85621,1005A Morris Park Ave,Bronx,10462,restaurant
811,G & R Deli,45,4.5,$,653.5340389246295,40.853057,-73.853103,1928 Williamsbridge Rd,Bronx,10461,restaurant
812,Tana Thai,214,3.0,$$,701.148875652313,40.8513635,-73.8439993,1890 Eastchester Rd,Bronx,10461,restaurant
813,Bagels and Cream,79,3.5,$,503.7187357765118,40.84719,-73.84437,1728 Eastchester Rd,Bronx,10461,restaurant
814,Xokotl Deli,13,5.0,,96.39413128250835,40.84717,-73.84938,1605 Williamsbridge Rd,The Bronx,10461,restaurant
815,Scaglione Bros Bakery & Deli,22,4.5,$,306.2826693854671,40.84905,-73.85347,1078 Morris Park Ave,Bronx,10461,restaurant
816,King Souvlaki - Astoria,345,4.0,$$,11113.846944816438,40.764355,-73.923586,31 St And 31 Ave,Astoria,11106,restaurant
817,Antonio's Trattoria,982,4.5,$$,382.90310595560646,40.854131,-73.886601,2370 Belmont Ave,Bronx,10458,restaurant
818,Trattoria Zero Otto Nove,846,4.0,$$,277.7820042293819,40.854779,-73.888474,2357 Arthur Ave,Bronx,10458,restaurant
819,Casa Della Mozzarella Italian Deli,235,5.0,$$,231.3799994483083,40.85533,-73.88742,604 E 187th St,Bronx,10458,restaurant
820,Joe's Italian Deli,169,5.0,$$,419.55069645359447,40.8544073,-73.8848751,685 E 187th St,Bronx,10458,restaurant
821,Mike's Deli Arthur Avenue,249,4.0,$$,345.6409705868883,40.85416,-73.88817,2344 Arthur Ave,Bronx,10458,restaurant
822,Tino's Delicatessen,209,4.0,$$,200.8674545553794,40.855761,-73.887075,2410 Arthur Ave,Bronx,10458,restaurant
823,Full Moon Pizzeria,329,4.0,$,225.43299906510177,40.85536,-73.88758,600 E 187th St,Bronx,10458,restaurant
824,Dominick's Restaurant,408,4.0,$$,330.4367591438888,40.85434,-73.889,2335 Arthur Ave,Bronx,10458,restaurant
825,Pugsley's Pizza,177,4.5,$,346.3211350911813,40.85881,-73.88475,590 E 191st St,Bronx,10458,restaurant
826,Enzos of Arthur Avenue,372,4.0,$$,285.61868726482226,40.85471669732672,-73.8887236,2339 Arthur Ave,Bronx,10458,restaurant
827,Arthur Ave Fiasco,131,4.5,$$,276.5716879925367,40.854825,-73.887862,2376 Arthur Ave,Bronx,10458,restaurant
828,Roberto's,284,4.0,$$$,390.2052527494011,40.85372,-73.88834,603 Crescent Ave,Bronx,10458,restaurant
829,San Gennaro Trattoria Restaurant Bar,210,4.0,$$,361.6422381549567,40.8540465225016,-73.8889484480023,2329 Arthur Ave,West Bronx,10458,restaurant
830,Clinton Hall Bronx,209,4.0,$$,232.2620601156457,40.85735,-73.88574,601 E 189th St,Bronx,10458,restaurant
831,Mario's Restaurant,315,4.0,$$,349.45859140347994,40.8542,-73.88857,2342 Arthur Ave,Bronx,10458,restaurant
832,Michaelangelo's Little Italy,251,3.5,$$,184.1875381801533,40.8573321267268,-73.8862630999689,2477 Arthur Ave,Bronx,10458,restaurant
833,ÇKA KA QËLLU,113,4.5,$$,386.8401991368555,40.8538017786913,-73.8882422081079,2321 Hughes Ave,Bronx,10458,restaurant
834,Trattoria Tra di Noi,173,4.0,$$,291.01499163421227,40.85493,-73.8869,622 East 187th St,Bronx,10458,restaurant
835,Gerbasi Ristorante,194,4.0,$$,195.61089528924705,40.855704054640576,-73.88741072750854,2389 Arthur Ave,Bronx,10458,restaurant
836,Emilia's Restaurant,217,4.0,$$,353.6112786624841,40.85415,-73.88894,2331 Arthur Ave,Bronx,10458,restaurant
837,Estrellita Poblana III,186,4.0,$$,384.0957237341655,40.853828,-73.888672,2328 Arthur Ave,Bronx,10458,restaurant
838,Zhongzhong Noodles - Bronx,45,4.5,$$,363.4562482235904,40.85658,-73.88415,657 E 189th St,The Bronx,10458,restaurant
839,Pasquale Rigoletto Restaurant,198,3.5,$$,385.2782659143827,40.8538,-73.88925,2311 Arthur Ave,Bronx,10458,restaurant
840,Roc N Ramen,65,4.5,$$,237.57990493669337,40.85531,-73.88738,606 E 187th St,The Bronx,10473,restaurant
841,The Bronx Beer Hall,164,3.5,$$,357.68136749078144,40.854065223926746,-73.88821892775319,2344 Arthur Ave,Bronx,10458,restaurant
842,Aoyu Sushi,283,4.5,$$,836.0107745811895,40.8860150724649,-73.9098029583693,3532 A Johnson Ave,Bronx,10463,restaurant
843,Inwood Farm,699,4.0,$$,953.9151013307752,40.872860841400616,-73.91834640216938,600 W 218th St,New York,10034,restaurant
844,Liebman's Kosher Delicatessen,337,4.0,$$,777.4265246981585,40.88548,-73.90951,552 W 235th St,Bronx,10463,restaurant
845,Sam's Pizza,154,4.5,$,961.8994178642556,40.87939,-73.90601,232 W 231st St,Bronx,10463,restaurant
846,Greek Express,246,4.0,$$,1054.113938744052,40.887465130647726,-73.90755915766862,3733 Riverdale Ave,Bronx,10463,restaurant
847,Yo-Burger,283,4.0,$$,1093.9253259344923,40.88739,-73.90695,3726 Riverdale Ave,Bronx,10463,restaurant
848,Tin Marin,358,4.0,$$,1072.4086280131835,40.8870296802542,-73.9068375260971,3708 Riverdale Ave,Bronx,10463,restaurant
849,Salvatores of Soho,331,4.0,$$,1103.1307312061736,40.8875232,-73.90704,3738 Riverdale Ave,Bronx,10463,restaurant
850,Tibbett Diner,125,4.0,$,695.7614602375174,40.88038,-73.90906,3033 Tibbett Ave,Bronx,10463,restaurant
851,Siam Square,132,3.5,$$,292.3623423829612,40.8786081,-73.9170971,564 Kappock St,Bronx,10463,restaurant
852,Moss Cafe,168,4.0,$$,747.6947020112668,40.88529937379742,-73.90994947055142,3260 Johnson Ave,Bronx,10463,restaurant
853,Neem Indian Cuisine,91,4.5,$$,822.7360549004317,40.886547,-73.909968,3549 Johnson Ave,New York,10463,restaurant
854,Bella Notte,226,3.5,$$,824.5976570422467,40.886035,-73.909539,3524 Johnson Ave,Bronx,10463,restaurant
855,Cocina Chente,214,4.0,$$,996.1425280045114,40.88620632793199,-73.9071951348118,3535 Riverdale Ave,Bronx,10463,restaurant
856,Palace of Japan,204,3.5,$$,781.0649163445363,40.88612,-73.91,3505 Johnson Ave,Bronx,10463,restaurant
857,Moon Star Grill,128,4.0,$$,805.9076034795434,40.8861089331436,-73.909908766271,3519-25 Johnson Ave,Riverdale,10463,restaurant
858,Blackstone Bar & Grill,100,4.0,$$,1074.0929969413846,40.887361171014,-73.9071422050018,3713 Riverdale Ave,Bronx,10463,restaurant
859,Mi Lindo San Miguelito,48,4.0,$$,890.5241498098779,40.88006,-73.90675,257 W 231st St,Bronx,10463,restaurant
860,Metate,208,3.0,$$,792.3750560639481,40.8860208,-73.9100364,3515 Johnson Ave,Bronx,10463,restaurant
861,Pizza Chef,72,3.5,$,738.3633206013869,40.885555267334,-73.9103546142578,564 W 235th St,Bronx,10463,restaurant
862,Taqueria Sinaloense,20,4.5,,929.3639971495824,40.8745319406573,-73.9107076288211,113 W 225th St,Bronx,10463,restaurant
